{
    "data": {
        "stations": [
            {
                "is_virtual_station": true,
                "lat": 50.85080751,
                "lon": 4.360558301,
                "name": "Ville 227",
                "region_id": "31531fbf-77ec-4002-a635-ebe80880ac44",
                "station_id": "3c5935ec-c077-4bf4-a0a8-1d31803c16f0",
                "vehicle_capacity": { "dott_bicycle": 5, "dott_scooter": 5 }
            },
            {
                "is_virtual_station": true,
                "lat": 50.83936825,
                "lon": 4.361424345,
                "name": "Ville 194",
                "region_id": "31531fbf-77ec-4002-a635-ebe80880ac44",
                "station_id": "c155769c-24ad-4c6d-8216-1444dcadad68",
                "vehicle_capacity": { "dott_bicycle": 5, "dott_scooter": 5 }
            },
            {
                "is_virtual_station": true,
                "lat": 50.83530135,
                "lon": 4.321238981,
                "name": "Anderlecht 105",
                "region_id": "31531fbf-77ec-4002-a635-ebe80880ac44",
                "station_id": "9411a70d-c0b6-4124-8f65-46053620068c",
                "vehicle_capacity": { "dott_bicycle": 5, "dott_scooter": 5 }
            },
            {
                "is_virtual_station": true,
                "lat": 50.85337434,
                "lon": 4.349930043,
                "name": "Ville 338",
                "region_id": "31531fbf-77ec-4002-a635-ebe80880ac44",
                "station_id": "1c486310-e757-4c9d-bbc7-c879b8288d68",
                "vehicle_capacity": { "dott_bicycle": 5, "dott_scooter": 5 }
            },
            {
                "is_virtual_station": true,
                "lat": 50.84266404,
                "lon": 4.311117188,
                "name": "Anderlecht 61",
                "region_id": "31531fbf-77ec-4002-a635-ebe80880ac44",
                "station_id": "2856f057-a399-44a7-a4d2-1d5a6ed8cb60",
                "vehicle_capacity": { "dott_bicycle": 5, "dott_scooter": 5 }
            },
            {
                "is_virtual_station": true,
                "lat": 50.85007681,
                "lon": 4.386365078,
                "name": "Ville 528",
                "region_id": "31531fbf-77ec-4002-a635-ebe80880ac44",
                "station_id": "d76ae87e-f827-4906-b782-573c0f8a30c0",
                "vehicle_capacity": { "dott_bicycle": 5, "dott_scooter": 5 }
            },
            {
                "is_virtual_station": true,
                "lat": 50.85735303,
                "lon": 4.359113216,
                "name": "Saint-Josse-ten-Noode 20",
                "region_id": "31531fbf-77ec-4002-a635-ebe80880ac44",
                "station_id": "c1c68ce7-44e5-4ed3-8c6c-68378aabdd24",
                "vehicle_capacity": { "dott_bicycle": 5, "dott_scooter": 5 }
            },
            {
                "is_virtual_station": true,
                "lat": 50.80769089,
                "lon": 4.387685563,
                "name": "Ixelles 45",
                "region_id": "31531fbf-77ec-4002-a635-ebe80880ac44",
                "station_id": "49843bec-5ed1-4a25-b72a-627559dd519c",
                "vehicle_capacity": { "dott_bicycle": 5, "dott_scooter": 5 }
            },
            {
                "is_virtual_station": true,
                "lat": 50.82061992,
                "lon": 4.34011509,
                "name": "Forest 27",
                "region_id": "31531fbf-77ec-4002-a635-ebe80880ac44",
                "station_id": "e8b324f2-2105-48db-80c5-9ea977aa10b0",
                "vehicle_capacity": { "dott_bicycle": 5, "dott_scooter": 5 }
            },
            {
                "is_virtual_station": true,
                "lat": 50.83365867,
                "lon": 4.328671778,
                "name": "Anderlecht 202",
                "region_id": "31531fbf-77ec-4002-a635-ebe80880ac44",
                "station_id": "870e1804-d9a9-4c82-b68a-082072233a7c",
                "vehicle_capacity": { "dott_bicycle": 5, "dott_scooter": 5 }
            },
            {
                "is_virtual_station": true,
                "lat": 50.80964548,
                "lon": 4.377166698,
                "name": "Ville 413",
                "region_id": "31531fbf-77ec-4002-a635-ebe80880ac44",
                "station_id": "5a32faf1-a157-44cd-9c47-527c34b94fd4",
                "vehicle_capacity": { "dott_bicycle": 5, "dott_scooter": 5 }
            },
            {
                "is_virtual_station": true,
                "lat": 50.84449852,
                "lon": 4.378120015,
                "name": "Ville 510",
                "region_id": "31531fbf-77ec-4002-a635-ebe80880ac44",
                "station_id": "1ad5498a-e986-49a1-99f0-7dc17f24a6ec",
                "vehicle_capacity": { "dott_bicycle": 5, "dott_scooter": 5 }
            },
            {
                "is_virtual_station": true,
                "lat": 50.81410265,
                "lon": 4.411884257,
                "name": "Auderghem 35",
                "region_id": "31531fbf-77ec-4002-a635-ebe80880ac44",
                "station_id": "df481121-913d-4f6f-9c26-188289ab5fec",
                "vehicle_capacity": { "dott_bicycle": 5, "dott_scooter": 5 }
            },
            {
                "is_virtual_station": true,
                "lat": 50.86413682,
                "lon": 4.297363862,
                "name": "Berchem-Sainte-Agathe 10",
                "region_id": "31531fbf-77ec-4002-a635-ebe80880ac44",
                "station_id": "8436b739-4cb9-49d7-82d2-23d933c34660",
                "vehicle_capacity": { "dott_bicycle": 5, "dott_scooter": 5 }
            },
            {
                "is_virtual_station": true,
                "lat": 50.84918699,
                "lon": 4.386783667,
                "name": "Ville 531",
                "region_id": "31531fbf-77ec-4002-a635-ebe80880ac44",
                "station_id": "b2d68e26-c1a9-43ea-861a-f96c90ab0b10",
                "vehicle_capacity": { "dott_bicycle": 5, "dott_scooter": 5 }
            },
            {
                "is_virtual_station": true,
                "lat": 50.86328075,
                "lon": 4.366556825,
                "name": "Schaerbeek 153",
                "region_id": "31531fbf-77ec-4002-a635-ebe80880ac44",
                "station_id": "16ac3aa6-dc2b-44f6-a9c0-8635446eb920",
                "vehicle_capacity": { "dott_bicycle": 5, "dott_scooter": 5 }
            },
            {
                "is_virtual_station": true,
                "lat": 50.82675045,
                "lon": 4.400389997,
                "name": "Etterbeek 55",
                "region_id": "31531fbf-77ec-4002-a635-ebe80880ac44",
                "station_id": "1d735eb8-12f4-4913-b650-32a786b93174",
                "vehicle_capacity": { "dott_bicycle": 5, "dott_scooter": 5 }
            },
            {
                "is_virtual_station": true,
                "lat": 50.82095167,
                "lon": 4.350402615,
                "name": "Saint-Gilles 25",
                "region_id": "31531fbf-77ec-4002-a635-ebe80880ac44",
                "station_id": "075c8b7c-1f0a-45d7-ba30-b2e9cb1b9370",
                "vehicle_capacity": { "dott_bicycle": 5, "dott_scooter": 5 }
            },
            {
                "is_virtual_station": true,
                "lat": 50.85552239,
                "lon": 4.427919108,
                "name": "Woluwe-Saint-Lambert 88",
                "region_id": "31531fbf-77ec-4002-a635-ebe80880ac44",
                "station_id": "f57cd19a-a048-4ee8-b24c-b338445c8b1c",
                "vehicle_capacity": { "dott_bicycle": 5, "dott_scooter": 5 }
            },
            {
                "is_virtual_station": true,
                "lat": 50.84392855,
                "lon": 4.344940186,
                "name": "Ville 269",
                "region_id": "31531fbf-77ec-4002-a635-ebe80880ac44",
                "station_id": "2d77db08-3179-492f-bcca-32c723d7f254",
                "vehicle_capacity": { "dott_bicycle": 5, "dott_scooter": 5 }
            },
            {
                "is_virtual_station": true,
                "lat": 50.87251293,
                "lon": 4.290314575,
                "name": "Berchem-Sainte-Agathe 11",
                "region_id": "31531fbf-77ec-4002-a635-ebe80880ac44",
                "station_id": "d919f328-4342-4031-8942-3862e1b48b74",
                "vehicle_capacity": { "dott_bicycle": 5, "dott_scooter": 5 }
            },
            {
                "is_virtual_station": true,
                "lat": 50.86059118,
                "lon": 4.287206322,
                "name": "Berchem-Sainte-Agathe 1",
                "region_id": "31531fbf-77ec-4002-a635-ebe80880ac44",
                "station_id": "2ee375a1-73fd-42e1-a774-c4a67ccad040",
                "vehicle_capacity": { "dott_bicycle": 5, "dott_scooter": 5 }
            },
            {
                "is_virtual_station": true,
                "lat": 50.84018971,
                "lon": 4.462390244,
                "name": "Woluwe-Saint-Pierre 107",
                "region_id": "31531fbf-77ec-4002-a635-ebe80880ac44",
                "station_id": "45b41a4d-ff36-4963-9357-21341513fb84",
                "vehicle_capacity": { "dott_bicycle": 5, "dott_scooter": 5 }
            },
            {
                "is_virtual_station": true,
                "lat": 50.8313499,
                "lon": 4.383996978,
                "name": "Etterbeek 29",
                "region_id": "31531fbf-77ec-4002-a635-ebe80880ac44",
                "station_id": "67d45a1a-214a-4652-8389-fe29dbd89830",
                "vehicle_capacity": { "dott_bicycle": 5, "dott_scooter": 5 }
            },
            {
                "is_virtual_station": true,
                "lat": 50.82966722,
                "lon": 4.373107258,
                "name": "Ixelles 11",
                "region_id": "31531fbf-77ec-4002-a635-ebe80880ac44",
                "station_id": "cf77c9c3-36df-4c67-b51d-702805a366a4",
                "vehicle_capacity": { "dott_bicycle": 5, "dott_scooter": 5 }
            },
            {
                "is_virtual_station": true,
                "lat": 50.82087144,
                "lon": 4.344143233,
                "name": "Forest 62",
                "region_id": "31531fbf-77ec-4002-a635-ebe80880ac44",
                "station_id": "41589577-58ae-4a33-8325-8787ec231c04",
                "vehicle_capacity": { "dott_bicycle": 5, "dott_scooter": 5 }
            },
            {
                "is_virtual_station": true,
                "lat": 50.85562104,
                "lon": 4.401003124,
                "name": "Schaerbeek 199",
                "region_id": "31531fbf-77ec-4002-a635-ebe80880ac44",
                "station_id": "eed6aa9e-6a8b-436b-977f-dba736251b94",
                "vehicle_capacity": { "dott_bicycle": 5, "dott_scooter": 5 }
            },
            {
                "is_virtual_station": true,
                "lat": 50.82795936,
                "lon": 4.342177892,
                "name": "Saint-Gilles 65",
                "region_id": "31531fbf-77ec-4002-a635-ebe80880ac44",
                "station_id": "8ef3d4ae-f5a2-4706-a7b9-6c70ef13f734",
                "vehicle_capacity": { "dott_bicycle": 5, "dott_scooter": 5 }
            },
            {
                "is_virtual_station": true,
                "lat": 50.84519165,
                "lon": 4.375769329,
                "name": "Ville 511",
                "region_id": "31531fbf-77ec-4002-a635-ebe80880ac44",
                "station_id": "803f01ae-e061-4f09-a0cf-aae7c4690058",
                "vehicle_capacity": { "dott_bicycle": 5, "dott_scooter": 5 }
            },
            {
                "is_virtual_station": true,
                "lat": 50.79809856,
                "lon": 4.419011218,
                "name": "Watermael-Boitsfort 89",
                "region_id": "31531fbf-77ec-4002-a635-ebe80880ac44",
                "station_id": "dac05feb-0f32-4460-b442-4b37af4ab334",
                "vehicle_capacity": { "dott_bicycle": 5, "dott_scooter": 5 }
            },
            {
                "is_virtual_station": true,
                "lat": 50.79316695,
                "lon": 4.373926525,
                "name": "Uccle 2",
                "region_id": "31531fbf-77ec-4002-a635-ebe80880ac44",
                "station_id": "ead488b6-8511-4e27-88d4-1348e819bc48",
                "vehicle_capacity": { "dott_bicycle": 5, "dott_scooter": 5 }
            },
            {
                "is_virtual_station": true,
                "lat": 50.86234537,
                "lon": 4.300797284,
                "name": "Woluwe-Saint-Lambert 83",
                "region_id": "31531fbf-77ec-4002-a635-ebe80880ac44",
                "station_id": "c6cc68e2-4c72-480a-b824-c8f838b9318c",
                "vehicle_capacity": { "dott_bicycle": 5, "dott_scooter": 5 }
            },
            {
                "is_virtual_station": true,
                "lat": 50.8530616,
                "lon": 4.391623595,
                "name": "Schaerbeek 222",
                "region_id": "31531fbf-77ec-4002-a635-ebe80880ac44",
                "station_id": "7a372698-3439-44c4-9704-0b6475f3fcd0",
                "vehicle_capacity": { "dott_bicycle": 5, "dott_scooter": 5 }
            },
            {
                "is_virtual_station": true,
                "lat": 50.83014699,
                "lon": 4.381023412,
                "name": "Etterbeek 60",
                "region_id": "31531fbf-77ec-4002-a635-ebe80880ac44",
                "station_id": "87261658-ea8c-4b5e-a58e-48a05746d55c",
                "vehicle_capacity": { "dott_bicycle": 5, "dott_scooter": 5 }
            },
            {
                "is_virtual_station": true,
                "lat": 50.82902023,
                "lon": 4.339163376,
                "name": "Saint-Gilles 9",
                "region_id": "31531fbf-77ec-4002-a635-ebe80880ac44",
                "station_id": "2d78f6d2-b2c8-4852-8285-7a3974f45e98",
                "vehicle_capacity": { "dott_bicycle": 5, "dott_scooter": 5 }
            },
            {
                "is_virtual_station": true,
                "lat": 50.83077976,
                "lon": 4.34464884,
                "name": "Saint-Gilles 13",
                "region_id": "31531fbf-77ec-4002-a635-ebe80880ac44",
                "station_id": "971c5ff1-ca2a-4043-91ce-ee44ad91f608",
                "vehicle_capacity": { "dott_bicycle": 5, "dott_scooter": 5 }
            },
            {
                "is_virtual_station": true,
                "lat": 50.90139438,
                "lon": 4.34817531,
                "name": "Ville 5",
                "region_id": "31531fbf-77ec-4002-a635-ebe80880ac44",
                "station_id": "8a22c259-ad27-49dc-bb33-66814e886bc0",
                "vehicle_capacity": { "dott_bicycle": 5, "dott_scooter": 5 }
            },
            {
                "is_virtual_station": true,
                "lat": 50.86481876,
                "lon": 4.372139061,
                "name": "Schaerbeek 154",
                "region_id": "31531fbf-77ec-4002-a635-ebe80880ac44",
                "station_id": "a00e4e1c-59a0-4f74-b302-196fd6e4a4bc",
                "vehicle_capacity": { "dott_bicycle": 5, "dott_scooter": 5 }
            },
            {
                "is_virtual_station": true,
                "lat": 50.84791379,
                "lon": 4.437712368,
                "name": "Woluwe-Saint-Lambert 71",
                "region_id": "31531fbf-77ec-4002-a635-ebe80880ac44",
                "station_id": "e3815e43-2069-415d-8432-bb8b4a3035b8",
                "vehicle_capacity": { "dott_bicycle": 5, "dott_scooter": 5 }
            },
            {
                "is_virtual_station": true,
                "lat": 50.86651128,
                "lon": 4.365946751,
                "name": "Schaerbeek 221",
                "region_id": "31531fbf-77ec-4002-a635-ebe80880ac44",
                "station_id": "2d4c80c4-994b-412b-8932-834e341a077c",
                "vehicle_capacity": { "dott_bicycle": 5, "dott_scooter": 5 }
            },
            {
                "is_virtual_station": true,
                "lat": 50.84127238,
                "lon": 4.32860348,
                "name": "Anderlecht 205",
                "region_id": "31531fbf-77ec-4002-a635-ebe80880ac44",
                "station_id": "ce74ea9b-3b8e-4aa2-95e3-67ccca6a0bd0",
                "vehicle_capacity": { "dott_bicycle": 5, "dott_scooter": 5 }
            },
            {
                "is_virtual_station": true,
                "lat": 50.85243206,
                "lon": 4.357329377,
                "name": "Ville 236",
                "region_id": "31531fbf-77ec-4002-a635-ebe80880ac44",
                "station_id": "376db5b0-b6ea-4a93-9cf1-abb61572036c",
                "vehicle_capacity": { "dott_bicycle": 5, "dott_scooter": 5 }
            },
            {
                "is_virtual_station": true,
                "lat": 50.82291748,
                "lon": 4.343899294,
                "name": "Saint-Gilles 6",
                "region_id": "31531fbf-77ec-4002-a635-ebe80880ac44",
                "station_id": "db4a01bd-c630-4909-a55b-2c89df41ec3c",
                "vehicle_capacity": { "dott_bicycle": 5, "dott_scooter": 5 }
            },
            {
                "is_virtual_station": true,
                "lat": 50.86023078,
                "lon": 4.373668386,
                "name": "Schaerbeek 101",
                "region_id": "31531fbf-77ec-4002-a635-ebe80880ac44",
                "station_id": "38a58690-c867-4982-8323-d8f826fc9b78",
                "vehicle_capacity": { "dott_bicycle": 5, "dott_scooter": 5 }
            },
            {
                "is_virtual_station": true,
                "lat": 50.85034965,
                "lon": 4.381332064,
                "name": "Ville 524",
                "region_id": "31531fbf-77ec-4002-a635-ebe80880ac44",
                "station_id": "24122cb9-7b41-4e5c-93c8-9ed18bcd2e14",
                "vehicle_capacity": { "dott_bicycle": 5, "dott_scooter": 5 }
            },
            {
                "is_virtual_station": true,
                "lat": 50.84602796,
                "lon": 4.381461933,
                "name": "Ville 509",
                "region_id": "31531fbf-77ec-4002-a635-ebe80880ac44",
                "station_id": "f59c200c-c415-4f48-9d59-c6f97986b6b4",
                "vehicle_capacity": { "dott_bicycle": 5, "dott_scooter": 5 }
            },
            {
                "is_virtual_station": true,
                "lat": 50.82801918,
                "lon": 4.374132543,
                "name": "Ixelles 20",
                "region_id": "31531fbf-77ec-4002-a635-ebe80880ac44",
                "station_id": "b85f2e91-e6f5-4033-90b4-d81440a5fb50",
                "vehicle_capacity": { "dott_bicycle": 5, "dott_scooter": 5 }
            },
            {
                "is_virtual_station": true,
                "lat": 50.84993241,
                "lon": 4.427970648,
                "name": "Woluwe-Saint-Lambert 7",
                "region_id": "31531fbf-77ec-4002-a635-ebe80880ac44",
                "station_id": "32c580c4-486e-40f2-9c76-9efda6821530",
                "vehicle_capacity": { "dott_bicycle": 5, "dott_scooter": 5 }
            },
            {
                "is_virtual_station": true,
                "lat": 50.80639765,
                "lon": 4.407887847,
                "name": "Watermael-Boitsfort 16",
                "region_id": "31531fbf-77ec-4002-a635-ebe80880ac44",
                "station_id": "368e6b14-d5b1-46bb-98c3-0960440ad244",
                "vehicle_capacity": { "dott_bicycle": 5, "dott_scooter": 5 }
            },
            {
                "is_virtual_station": true,
                "lat": 50.84267017,
                "lon": 4.366876841,
                "name": "Ville 23",
                "region_id": "31531fbf-77ec-4002-a635-ebe80880ac44",
                "station_id": "597b1f61-881a-40cc-9ea3-1447839c2828",
                "vehicle_capacity": { "dott_bicycle": 5, "dott_scooter": 5 }
            },
            {
                "is_virtual_station": true,
                "lat": 50.82663637,
                "lon": 4.334473225,
                "name": "Forest 88",
                "region_id": "31531fbf-77ec-4002-a635-ebe80880ac44",
                "station_id": "a0dc6842-54c9-45a3-b6ad-dbbabe985894",
                "vehicle_capacity": { "dott_bicycle": 5, "dott_scooter": 5 }
            },
            {
                "is_virtual_station": true,
                "lat": 50.81770896,
                "lon": 4.25901179,
                "name": "-UNKNOWN- 2",
                "region_id": "31531fbf-77ec-4002-a635-ebe80880ac44",
                "station_id": "e1a6787d-6699-411d-8952-c4754d77ec44",
                "vehicle_capacity": { "dott_bicycle": 5, "dott_scooter": 5 }
            },
            {
                "is_virtual_station": true,
                "lat": 50.84024971,
                "lon": 4.465210245,
                "name": "Woluwe-Saint-Pierre 98",
                "region_id": "31531fbf-77ec-4002-a635-ebe80880ac44",
                "station_id": "d6a6e3d2-a96f-4cb0-8b92-deee64b8fcc8",
                "vehicle_capacity": { "dott_bicycle": 5, "dott_scooter": 5 }
            },
            {
                "is_virtual_station": true,
                "lat": 50.82000683,
                "lon": 4.411886108,
                "name": "Auderghem 33",
                "region_id": "31531fbf-77ec-4002-a635-ebe80880ac44",
                "station_id": "d41a87e5-856f-49e9-91dc-8669c405b6d8",
                "vehicle_capacity": { "dott_bicycle": 5, "dott_scooter": 5 }
            },
            {
                "is_virtual_station": true,
                "lat": 50.83795722,
                "lon": 4.418161556,
                "name": "Woluwe-Saint-Pierre 20",
                "region_id": "31531fbf-77ec-4002-a635-ebe80880ac44",
                "station_id": "c81c343a-9514-468e-9d94-be24dbd28fa4",
                "vehicle_capacity": { "dott_bicycle": 5, "dott_scooter": 5 }
            },
            {
                "is_virtual_station": true,
                "lat": 50.80759349,
                "lon": 4.390771289,
                "name": "Ixelles 87",
                "region_id": "31531fbf-77ec-4002-a635-ebe80880ac44",
                "station_id": "3599a690-579f-46e4-801b-653d85269098",
                "vehicle_capacity": { "dott_bicycle": 5, "dott_scooter": 5 }
            },
            {
                "is_virtual_station": true,
                "lat": 50.84064307,
                "lon": 4.372975286,
                "name": "Ville 495",
                "region_id": "31531fbf-77ec-4002-a635-ebe80880ac44",
                "station_id": "7e482deb-8114-4b62-9f05-31cd8a2dd664",
                "vehicle_capacity": { "dott_bicycle": 5, "dott_scooter": 5 }
            },
            {
                "is_virtual_station": true,
                "lat": 50.85560421,
                "lon": 4.383827279,
                "name": "Schaerbeek 96",
                "region_id": "31531fbf-77ec-4002-a635-ebe80880ac44",
                "station_id": "c33ce7f5-bed1-4500-b41e-e1aec6a92a28",
                "vehicle_capacity": { "dott_bicycle": 5, "dott_scooter": 5 }
            },
            {
                "is_virtual_station": true,
                "lat": 50.8421077,
                "lon": 4.369817033,
                "name": "Ville 496",
                "region_id": "31531fbf-77ec-4002-a635-ebe80880ac44",
                "station_id": "8988bc7f-3c47-49a9-993c-7718d48613a0",
                "vehicle_capacity": { "dott_bicycle": 5, "dott_scooter": 5 }
            },
            {
                "is_virtual_station": true,
                "lat": 50.84639055,
                "lon": 4.294946096,
                "name": "Anderlecht 101",
                "region_id": "31531fbf-77ec-4002-a635-ebe80880ac44",
                "station_id": "612bf09e-0c65-4bc8-8273-b62f8df4d494",
                "vehicle_capacity": { "dott_bicycle": 5, "dott_scooter": 5 }
            },
            {
                "is_virtual_station": true,
                "lat": 50.83084972,
                "lon": 4.416160253,
                "name": "Woluwe-Saint-Pierre 132",
                "region_id": "31531fbf-77ec-4002-a635-ebe80880ac44",
                "station_id": "845c0b0a-3220-438e-afd5-8ec3356c4488",
                "vehicle_capacity": { "dott_bicycle": 5, "dott_scooter": 5 }
            },
            {
                "is_virtual_station": true,
                "lat": 50.82249592,
                "lon": 4.330972878,
                "name": "Forest 85",
                "region_id": "31531fbf-77ec-4002-a635-ebe80880ac44",
                "station_id": "9a45d6ab-db71-49f9-b323-c6d051f9bb68",
                "vehicle_capacity": { "dott_bicycle": 5, "dott_scooter": 5 }
            },
            {
                "is_virtual_station": true,
                "lat": 50.84057348,
                "lon": 4.350238299,
                "name": "Ville 261",
                "region_id": "31531fbf-77ec-4002-a635-ebe80880ac44",
                "station_id": "f6128f8c-0517-4502-a589-f9edd6ca67bc",
                "vehicle_capacity": { "dott_bicycle": 5, "dott_scooter": 5 }
            },
            {
                "is_virtual_station": true,
                "lat": 50.84807527,
                "lon": 4.338031263,
                "name": "Ville 69",
                "region_id": "31531fbf-77ec-4002-a635-ebe80880ac44",
                "station_id": "6973199d-362b-4f75-89f2-0b1d25a65ab8",
                "vehicle_capacity": { "dott_bicycle": 5, "dott_scooter": 5 }
            },
            {
                "is_virtual_station": true,
                "lat": 50.8746411,
                "lon": 4.402899015,
                "name": "Evere 51",
                "region_id": "31531fbf-77ec-4002-a635-ebe80880ac44",
                "station_id": "a4277d48-911a-4429-8e69-5a5726f7564c",
                "vehicle_capacity": { "dott_bicycle": 5, "dott_scooter": 5 }
            },
            {
                "is_virtual_station": true,
                "lat": 50.87607496,
                "lon": 4.411651059,
                "name": "Evere 56",
                "region_id": "31531fbf-77ec-4002-a635-ebe80880ac44",
                "station_id": "3c184a94-913d-4d64-aa53-35d03aca59dc",
                "vehicle_capacity": { "dott_bicycle": 5, "dott_scooter": 5 }
            },
            {
                "is_virtual_station": true,
                "lat": 50.8375131,
                "lon": 4.396230384,
                "name": "Etterbeek 70",
                "region_id": "31531fbf-77ec-4002-a635-ebe80880ac44",
                "station_id": "76b2dab2-d9fb-4f70-9353-c24248eeb288",
                "vehicle_capacity": { "dott_bicycle": 5, "dott_scooter": 5 }
            },
            {
                "is_virtual_station": true,
                "lat": 50.85430365,
                "lon": 4.341869405,
                "name": "Molenbeek-Saint-Jean 8",
                "region_id": "31531fbf-77ec-4002-a635-ebe80880ac44",
                "station_id": "7fd93716-fba4-471c-ab7d-5a9267c840dc",
                "vehicle_capacity": { "dott_bicycle": 5, "dott_scooter": 5 }
            },
            {
                "is_virtual_station": true,
                "lat": 50.85827641,
                "lon": 4.3928326,
                "name": "Schaerbeek 94",
                "region_id": "31531fbf-77ec-4002-a635-ebe80880ac44",
                "station_id": "9d5b1c59-d4f2-4443-ad85-2e380b87bbbc",
                "vehicle_capacity": { "dott_bicycle": 5, "dott_scooter": 5 }
            },
            {
                "is_virtual_station": true,
                "lat": 50.83661565,
                "lon": 4.404324977,
                "name": "Etterbeek 14",
                "region_id": "31531fbf-77ec-4002-a635-ebe80880ac44",
                "station_id": "e65081c1-707b-4779-b210-627069388a38",
                "vehicle_capacity": { "dott_bicycle": 5, "dott_scooter": 5 }
            },
            {
                "is_virtual_station": true,
                "lat": 50.87009087,
                "lon": 4.381883498,
                "name": "Schaerbeek 131",
                "region_id": "31531fbf-77ec-4002-a635-ebe80880ac44",
                "station_id": "0c333908-d7c3-458b-9197-a9870c73a078",
                "vehicle_capacity": { "dott_bicycle": 5, "dott_scooter": 5 }
            },
            {
                "is_virtual_station": true,
                "lat": 50.85058064,
                "lon": 4.361122215,
                "name": "Ville 228",
                "region_id": "31531fbf-77ec-4002-a635-ebe80880ac44",
                "station_id": "785348ab-6ea5-4698-aea9-52b38fb9b53c",
                "vehicle_capacity": { "dott_bicycle": 5, "dott_scooter": 5 }
            },
            {
                "is_virtual_station": true,
                "lat": 50.82719726,
                "lon": 4.340245178,
                "name": "Saint-Gilles 21",
                "region_id": "31531fbf-77ec-4002-a635-ebe80880ac44",
                "station_id": "2cb743d2-c03d-483d-93a1-3d96f465fc18",
                "vehicle_capacity": { "dott_bicycle": 5, "dott_scooter": 5 }
            },
            {
                "is_virtual_station": true,
                "lat": 50.88058408,
                "lon": 4.3004228,
                "name": "Ganshoren 12",
                "region_id": "31531fbf-77ec-4002-a635-ebe80880ac44",
                "station_id": "21d4a943-13c0-4383-a84c-48b417291534",
                "vehicle_capacity": { "dott_bicycle": 5, "dott_scooter": 5 }
            },
            {
                "is_virtual_station": true,
                "lat": 50.84162971,
                "lon": 4.465790244,
                "name": "Woluwe-Saint-Pierre 92",
                "region_id": "31531fbf-77ec-4002-a635-ebe80880ac44",
                "station_id": "6ca3639c-e245-4584-af71-663d362048cc",
                "vehicle_capacity": { "dott_bicycle": 5, "dott_scooter": 5 }
            },
            {
                "is_virtual_station": true,
                "lat": 50.87278317,
                "lon": 4.323138329,
                "name": "Ganshoren 51",
                "region_id": "31531fbf-77ec-4002-a635-ebe80880ac44",
                "station_id": "1f440839-0744-476c-9ece-2a25c49945c0",
                "vehicle_capacity": { "dott_bicycle": 5, "dott_scooter": 5 }
            },
            {
                "is_virtual_station": true,
                "lat": 50.84511355,
                "lon": 4.291752195,
                "name": "Anderlecht 52",
                "region_id": "31531fbf-77ec-4002-a635-ebe80880ac44",
                "station_id": "03a4785c-975c-46b1-9548-7552b128752c",
                "vehicle_capacity": { "dott_bicycle": 5, "dott_scooter": 5 }
            },
            {
                "is_virtual_station": true,
                "lat": 50.83904247,
                "lon": 4.401335515,
                "name": "Etterbeek 41",
                "region_id": "31531fbf-77ec-4002-a635-ebe80880ac44",
                "station_id": "50636b04-c072-41a5-b1a5-1dab96329878",
                "vehicle_capacity": { "dott_bicycle": 5, "dott_scooter": 5 }
            },
            {
                "is_virtual_station": true,
                "lat": 50.80288972,
                "lon": 4.41777829,
                "name": "Watermael-Boitsfort 52",
                "region_id": "31531fbf-77ec-4002-a635-ebe80880ac44",
                "station_id": "dd28d750-e5ac-43db-990d-3125f1760944",
                "vehicle_capacity": { "dott_bicycle": 5, "dott_scooter": 5 }
            },
            {
                "is_virtual_station": true,
                "lat": 50.85711519,
                "lon": 4.352673827,
                "name": "Ville 43",
                "region_id": "31531fbf-77ec-4002-a635-ebe80880ac44",
                "station_id": "9724d8d1-f6bd-421e-9e50-3445e1554630",
                "vehicle_capacity": { "dott_bicycle": 5, "dott_scooter": 5 }
            },
            {
                "is_virtual_station": true,
                "lat": 50.83994735,
                "lon": 4.286110395,
                "name": "Anderlecht 99",
                "region_id": "31531fbf-77ec-4002-a635-ebe80880ac44",
                "station_id": "b72009da-d723-4e38-a85c-6d8082255510",
                "vehicle_capacity": { "dott_bicycle": 5, "dott_scooter": 5 }
            },
            {
                "is_virtual_station": true,
                "lat": 50.84802177,
                "lon": 4.36368329,
                "name": "Ville 206",
                "region_id": "31531fbf-77ec-4002-a635-ebe80880ac44",
                "station_id": "7c779538-0e82-4a72-9f0f-9a4a127f0140",
                "vehicle_capacity": { "dott_bicycle": 5, "dott_scooter": 5 }
            },
            {
                "is_virtual_station": true,
                "lat": 50.87226015,
                "lon": 4.328069354,
                "name": "Jette 79",
                "region_id": "31531fbf-77ec-4002-a635-ebe80880ac44",
                "station_id": "83793a15-f089-4852-965a-8c8fce9d3100",
                "vehicle_capacity": { "dott_bicycle": 5, "dott_scooter": 5 }
            },
            {
                "is_virtual_station": true,
                "lat": 50.84812705,
                "lon": 4.35785497,
                "name": "Ville 239",
                "region_id": "31531fbf-77ec-4002-a635-ebe80880ac44",
                "station_id": "11e0e1a3-9678-4d60-8cca-f85e2fa8ae60",
                "vehicle_capacity": { "dott_bicycle": 5, "dott_scooter": 5 }
            },
            {
                "is_virtual_station": true,
                "lat": 50.83498132,
                "lon": 4.385749958,
                "name": "Etterbeek 31",
                "region_id": "31531fbf-77ec-4002-a635-ebe80880ac44",
                "station_id": "50071b43-b9e4-4199-b0d6-a61604113a28",
                "vehicle_capacity": { "dott_bicycle": 5, "dott_scooter": 5 }
            },
            {
                "is_virtual_station": true,
                "lat": 50.87593651,
                "lon": 4.343542848,
                "name": "Ville 486",
                "region_id": "31531fbf-77ec-4002-a635-ebe80880ac44",
                "station_id": "3dbaccc8-60ba-4827-aa39-1b42f7769a00",
                "vehicle_capacity": { "dott_bicycle": 5, "dott_scooter": 5 }
            },
            {
                "is_virtual_station": true,
                "lat": 50.87114034,
                "lon": 4.349410285,
                "name": "Ville 477",
                "region_id": "31531fbf-77ec-4002-a635-ebe80880ac44",
                "station_id": "83660ddd-001e-4bc0-8f66-d33cf49dcdb4",
                "vehicle_capacity": { "dott_bicycle": 5, "dott_scooter": 5 }
            },
            {
                "is_virtual_station": true,
                "lat": 50.83945794,
                "lon": 4.3990172,
                "name": "Etterbeek 78",
                "region_id": "31531fbf-77ec-4002-a635-ebe80880ac44",
                "station_id": "418ea4a7-0a95-4d37-98f2-218190011c28",
                "vehicle_capacity": { "dott_bicycle": 5, "dott_scooter": 5 }
            },
            {
                "is_virtual_station": true,
                "lat": 50.84593924,
                "lon": 4.323692387,
                "name": "Anderlecht 14",
                "region_id": "31531fbf-77ec-4002-a635-ebe80880ac44",
                "station_id": "c235efb5-6a11-4d82-8baf-d21c4f8f7408",
                "vehicle_capacity": { "dott_bicycle": 5, "dott_scooter": 5 }
            },
            {
                "is_virtual_station": true,
                "lat": 50.83747085,
                "lon": 4.359788854,
                "name": "Ixelles 111",
                "region_id": "31531fbf-77ec-4002-a635-ebe80880ac44",
                "station_id": "d3015da4-6950-44a4-983b-b59aaee88d94",
                "vehicle_capacity": { "dott_bicycle": 5, "dott_scooter": 5 }
            },
            {
                "is_virtual_station": true,
                "lat": 50.90019761,
                "lon": 4.357789127,
                "name": "Ville 553",
                "region_id": "31531fbf-77ec-4002-a635-ebe80880ac44",
                "station_id": "929cb85a-bcb5-40a1-9a4c-5ea4bc7312a0",
                "vehicle_capacity": { "dott_bicycle": 5, "dott_scooter": 5 }
            },
            {
                "is_virtual_station": true,
                "lat": 50.85802954,
                "lon": 4.441519898,
                "name": "Woluwe-Saint-Lambert 56",
                "region_id": "31531fbf-77ec-4002-a635-ebe80880ac44",
                "station_id": "14d045e1-6a63-4d3c-8de1-223653344b84",
                "vehicle_capacity": { "dott_bicycle": 5, "dott_scooter": 5 }
            },
            {
                "is_virtual_station": true,
                "lat": 50.85036101,
                "lon": 4.357763284,
                "name": "Ville 230",
                "region_id": "31531fbf-77ec-4002-a635-ebe80880ac44",
                "station_id": "89784fb1-6659-40cd-b1f1-c3172de004a0",
                "vehicle_capacity": { "dott_bicycle": 5, "dott_scooter": 5 }
            },
            {
                "is_virtual_station": true,
                "lat": 50.86088263,
                "lon": 4.391760326,
                "name": "Schaerbeek 189",
                "region_id": "31531fbf-77ec-4002-a635-ebe80880ac44",
                "station_id": "6f6753cd-f7da-450e-a8d1-83cfec3ba644",
                "vehicle_capacity": { "dott_bicycle": 5, "dott_scooter": 5 }
            },
            {
                "is_virtual_station": true,
                "lat": 50.79596685,
                "lon": 4.413633752,
                "name": "Watermael-Boitsfort 66",
                "region_id": "31531fbf-77ec-4002-a635-ebe80880ac44",
                "station_id": "b8f5c5cc-8afb-4316-9930-d56411362708",
                "vehicle_capacity": { "dott_bicycle": 5, "dott_scooter": 5 }
            },
            {
                "is_virtual_station": true,
                "lat": 50.88603159,
                "lon": 4.310231117,
                "name": "Jette 61",
                "region_id": "31531fbf-77ec-4002-a635-ebe80880ac44",
                "station_id": "c471aa1b-2beb-4986-af42-74f5822f1bd8",
                "vehicle_capacity": { "dott_bicycle": 5, "dott_scooter": 5 }
            },
            {
                "is_virtual_station": true,
                "lat": 50.83673559,
                "lon": 4.386660303,
                "name": "Etterbeek 46",
                "region_id": "31531fbf-77ec-4002-a635-ebe80880ac44",
                "station_id": "8146ba30-eb50-4adc-a0b9-bb41dc4cdfac",
                "vehicle_capacity": { "dott_bicycle": 5, "dott_scooter": 5 }
            },
            {
                "is_virtual_station": true,
                "lat": 50.86883165,
                "lon": 4.392606999,
                "name": "Schaerbeek 79",
                "region_id": "31531fbf-77ec-4002-a635-ebe80880ac44",
                "station_id": "4a25d5dc-2986-4d82-a2af-7069dcfc5554",
                "vehicle_capacity": { "dott_bicycle": 5, "dott_scooter": 5 }
            },
            {
                "is_virtual_station": true,
                "lat": 50.79963615,
                "lon": 4.414673832,
                "name": "Watermael-Boitsfort 5",
                "region_id": "31531fbf-77ec-4002-a635-ebe80880ac44",
                "station_id": "4948e539-7b73-4f14-ab59-e06544a82548",
                "vehicle_capacity": { "dott_bicycle": 5, "dott_scooter": 5 }
            },
            {
                "is_virtual_station": true,
                "lat": 50.82766224,
                "lon": 4.373276595,
                "name": "Ixelles 149",
                "region_id": "31531fbf-77ec-4002-a635-ebe80880ac44",
                "station_id": "65a540a9-81ed-4ba1-9817-4a220ad0ad98",
                "vehicle_capacity": { "dott_bicycle": 5, "dott_scooter": 5 }
            },
            {
                "is_virtual_station": true,
                "lat": 50.82017762,
                "lon": 4.330753773,
                "name": "Forest 3",
                "region_id": "31531fbf-77ec-4002-a635-ebe80880ac44",
                "station_id": "6062499f-6bac-430e-8e9e-f14ab640e6a4",
                "vehicle_capacity": { "dott_bicycle": 5, "dott_scooter": 5 }
            },
            {
                "is_virtual_station": true,
                "lat": 50.84239187,
                "lon": 4.369866041,
                "name": "Ville 156",
                "region_id": "31531fbf-77ec-4002-a635-ebe80880ac44",
                "station_id": "bd522867-90a0-4258-884f-9611d03aa8e0",
                "vehicle_capacity": { "dott_bicycle": 5, "dott_scooter": 5 }
            },
            {
                "is_virtual_station": true,
                "lat": 50.81629127,
                "lon": 4.307481982,
                "name": "Anderlecht 153",
                "region_id": "31531fbf-77ec-4002-a635-ebe80880ac44",
                "station_id": "bc15b23d-3b24-4b67-985c-75202aaf6eec",
                "vehicle_capacity": { "dott_bicycle": 5, "dott_scooter": 5 }
            },
            {
                "is_virtual_station": true,
                "lat": 50.84124024,
                "lon": 4.406522472,
                "name": "Woluwe-Saint-Lambert 50",
                "region_id": "31531fbf-77ec-4002-a635-ebe80880ac44",
                "station_id": "316e564d-356b-478f-896d-e6f91f2c5884",
                "vehicle_capacity": { "dott_bicycle": 5, "dott_scooter": 5 }
            },
            {
                "is_virtual_station": true,
                "lat": 50.82452972,
                "lon": 4.457550238,
                "name": "Woluwe-Saint-Pierre 56",
                "region_id": "31531fbf-77ec-4002-a635-ebe80880ac44",
                "station_id": "9b3c12c1-fb76-400b-a780-fbdcaf16220c",
                "vehicle_capacity": { "dott_bicycle": 5, "dott_scooter": 5 }
            },
            {
                "is_virtual_station": true,
                "lat": 50.83243941,
                "lon": 4.403443621,
                "name": "Etterbeek 20",
                "region_id": "31531fbf-77ec-4002-a635-ebe80880ac44",
                "station_id": "255eb048-9a56-403d-9c5c-54e9bf2ee10c",
                "vehicle_capacity": { "dott_bicycle": 5, "dott_scooter": 5 }
            },
            {
                "is_virtual_station": true,
                "lat": 50.84491323,
                "lon": 4.404299753,
                "name": "Woluwe-Saint-Lambert 49",
                "region_id": "31531fbf-77ec-4002-a635-ebe80880ac44",
                "station_id": "0df0937c-4127-4b2f-b59c-5ac1e97bdb58",
                "vehicle_capacity": { "dott_bicycle": 5, "dott_scooter": 5 }
            },
            {
                "is_virtual_station": true,
                "lat": 50.83244172,
                "lon": 4.443749246,
                "name": "Woluwe-Saint-Pierre 84",
                "region_id": "31531fbf-77ec-4002-a635-ebe80880ac44",
                "station_id": "e46bb269-eb6e-46ad-8092-8be3c8de00b8",
                "vehicle_capacity": { "dott_bicycle": 5, "dott_scooter": 5 }
            },
            {
                "is_virtual_station": true,
                "lat": 50.822438,
                "lon": 4.32746998,
                "name": "Forest 22",
                "region_id": "31531fbf-77ec-4002-a635-ebe80880ac44",
                "station_id": "06a047a5-21b9-4d1a-b755-cc5e3a29ab44",
                "vehicle_capacity": { "dott_bicycle": 5, "dott_scooter": 5 }
            },
            {
                "is_virtual_station": true,
                "lat": 50.84724088,
                "lon": 4.446316385,
                "name": "Woluwe-Saint-Lambert 94",
                "region_id": "31531fbf-77ec-4002-a635-ebe80880ac44",
                "station_id": "5ad86d9f-9c6a-4343-9acf-1ec22811f8a0",
                "vehicle_capacity": { "dott_bicycle": 5, "dott_scooter": 5 }
            },
            {
                "is_virtual_station": true,
                "lat": 50.83695891,
                "lon": 4.390219932,
                "name": "Etterbeek 40",
                "region_id": "31531fbf-77ec-4002-a635-ebe80880ac44",
                "station_id": "f5e13c8e-068c-44b6-9ef5-5f439bc01710",
                "vehicle_capacity": { "dott_bicycle": 5, "dott_scooter": 5 }
            },
            {
                "is_virtual_station": true,
                "lat": 50.89445253,
                "lon": 4.381032855,
                "name": "Ville 560",
                "region_id": "31531fbf-77ec-4002-a635-ebe80880ac44",
                "station_id": "93a4d140-fd16-41fd-a2a0-78dea2a3ba7c",
                "vehicle_capacity": { "dott_bicycle": 5, "dott_scooter": 5 }
            },
            {
                "is_virtual_station": true,
                "lat": 50.83011333,
                "lon": 4.352681142,
                "name": "Saint-Gilles 31",
                "region_id": "31531fbf-77ec-4002-a635-ebe80880ac44",
                "station_id": "71d4e8aa-206b-4e2a-b69b-a3944d0e2660",
                "vehicle_capacity": { "dott_bicycle": 5, "dott_scooter": 5 }
            },
            {
                "is_virtual_station": true,
                "lat": 50.82310921,
                "lon": 4.349649247,
                "name": "Saint-Gilles 44",
                "region_id": "31531fbf-77ec-4002-a635-ebe80880ac44",
                "station_id": "9edd891a-b4a6-4434-8a46-2a5788e991e0",
                "vehicle_capacity": { "dott_bicycle": 5, "dott_scooter": 5 }
            },
            {
                "is_virtual_station": true,
                "lat": 50.8169766,
                "lon": 4.279295383,
                "name": "Anderlecht 187",
                "region_id": "31531fbf-77ec-4002-a635-ebe80880ac44",
                "station_id": "978d03e9-13a4-4a8f-9924-f61edaaf136c",
                "vehicle_capacity": { "dott_bicycle": 5, "dott_scooter": 5 }
            },
            {
                "is_virtual_station": true,
                "lat": 50.86553475,
                "lon": 4.36019689,
                "name": "Schaerbeek 150",
                "region_id": "31531fbf-77ec-4002-a635-ebe80880ac44",
                "station_id": "02e39c4a-c975-4e59-abc1-037d1853a6c8",
                "vehicle_capacity": { "dott_bicycle": 5, "dott_scooter": 5 }
            },
            {
                "is_virtual_station": true,
                "lat": 50.85475716,
                "lon": 4.347071594,
                "name": "Ville 341",
                "region_id": "31531fbf-77ec-4002-a635-ebe80880ac44",
                "station_id": "f41f1615-705b-4f47-85cc-8b91e2989310",
                "vehicle_capacity": { "dott_bicycle": 5, "dott_scooter": 5 }
            },
            {
                "is_virtual_station": true,
                "lat": 50.8245178,
                "lon": 4.392940795,
                "name": "Etterbeek 98",
                "region_id": "31531fbf-77ec-4002-a635-ebe80880ac44",
                "station_id": "ef6e1e2f-5a94-437b-9012-742bac6e8954",
                "vehicle_capacity": { "dott_bicycle": 5, "dott_scooter": 5 }
            },
            {
                "is_virtual_station": true,
                "lat": 50.88189922,
                "lon": 4.3476492,
                "name": "Ville 464",
                "region_id": "31531fbf-77ec-4002-a635-ebe80880ac44",
                "station_id": "8f77453d-6f36-481a-9564-ce3266e3547c",
                "vehicle_capacity": { "dott_bicycle": 5, "dott_scooter": 5 }
            },
            {
                "is_virtual_station": true,
                "lat": 50.83725853,
                "lon": 4.376215057,
                "name": "Ixelles 152",
                "region_id": "31531fbf-77ec-4002-a635-ebe80880ac44",
                "station_id": "04210c9c-596f-42f3-b994-f599f6e18278",
                "vehicle_capacity": { "dott_bicycle": 5, "dott_scooter": 5 }
            },
            {
                "is_virtual_station": true,
                "lat": 50.83761035,
                "lon": 4.373585051,
                "name": "Ixelles 108",
                "region_id": "31531fbf-77ec-4002-a635-ebe80880ac44",
                "station_id": "dda0c208-34a2-4a97-a678-0a9b03005b78",
                "vehicle_capacity": { "dott_bicycle": 5, "dott_scooter": 5 }
            },
            {
                "is_virtual_station": true,
                "lat": 50.84047979,
                "lon": 4.38063079,
                "name": "Ville 161",
                "region_id": "31531fbf-77ec-4002-a635-ebe80880ac44",
                "station_id": "02455068-8b6e-4cd8-9a65-9d7438a937a4",
                "vehicle_capacity": { "dott_bicycle": 5, "dott_scooter": 5 }
            },
            {
                "is_virtual_station": true,
                "lat": 50.86692291,
                "lon": 4.309610764,
                "name": "Berchem-Sainte-Agathe 26",
                "region_id": "31531fbf-77ec-4002-a635-ebe80880ac44",
                "station_id": "0dc2536a-46db-4985-8a7c-a663707013dc",
                "vehicle_capacity": { "dott_bicycle": 5, "dott_scooter": 5 }
            },
            {
                "is_virtual_station": true,
                "lat": 50.80623094,
                "lon": 4.319429028,
                "name": "Forest 29",
                "region_id": "31531fbf-77ec-4002-a635-ebe80880ac44",
                "station_id": "8f4f1651-6255-4324-9869-8355f4b51e30",
                "vehicle_capacity": { "dott_bicycle": 5, "dott_scooter": 5 }
            },
            {
                "is_virtual_station": true,
                "lat": 50.81769882,
                "lon": 4.37234521,
                "name": "Ville 81",
                "region_id": "31531fbf-77ec-4002-a635-ebe80880ac44",
                "station_id": "13255591-8dd8-4f46-b46b-d4646a1b1ed0",
                "vehicle_capacity": { "dott_bicycle": 5, "dott_scooter": 5 }
            },
            {
                "is_virtual_station": true,
                "lat": 50.79742804,
                "lon": 4.395095298,
                "name": "Ville 125",
                "region_id": "31531fbf-77ec-4002-a635-ebe80880ac44",
                "station_id": "33719f36-7035-4758-a80b-25829fab76d0",
                "vehicle_capacity": { "dott_bicycle": 5, "dott_scooter": 5 }
            },
            {
                "is_virtual_station": true,
                "lat": 50.84118664,
                "lon": 4.350771775,
                "name": "Ville 260",
                "region_id": "31531fbf-77ec-4002-a635-ebe80880ac44",
                "station_id": "ea7e1362-de25-4743-8351-30ef5587eb00",
                "vehicle_capacity": { "dott_bicycle": 5, "dott_scooter": 5 }
            },
            {
                "is_virtual_station": true,
                "lat": 50.87468297,
                "lon": 4.310049819,
                "name": "Ganshoren 36",
                "region_id": "31531fbf-77ec-4002-a635-ebe80880ac44",
                "station_id": "7f830f16-991e-4e70-8a0f-9d70ae1bc3ec",
                "vehicle_capacity": { "dott_bicycle": 5, "dott_scooter": 5 }
            },
            {
                "is_virtual_station": true,
                "lat": 50.89544745,
                "lon": 4.363617022,
                "name": "Ville 555",
                "region_id": "31531fbf-77ec-4002-a635-ebe80880ac44",
                "station_id": "42cefb91-07c3-4c22-b43f-3ef95dc7cf58",
                "vehicle_capacity": { "dott_bicycle": 5, "dott_scooter": 5 }
            },
            {
                "is_virtual_station": true,
                "lat": 50.86297417,
                "lon": 4.411426966,
                "name": "Evere 10",
                "region_id": "31531fbf-77ec-4002-a635-ebe80880ac44",
                "station_id": "59f6ce69-5a52-4536-8201-55eb3c084ef0",
                "vehicle_capacity": { "dott_bicycle": 5, "dott_scooter": 5 }
            },
            {
                "is_virtual_station": true,
                "lat": 50.83166122,
                "lon": 4.349087044,
                "name": "Saint-Gilles 90",
                "region_id": "31531fbf-77ec-4002-a635-ebe80880ac44",
                "station_id": "3296516b-39e0-423d-8fd1-43bc1a0aa768",
                "vehicle_capacity": { "dott_bicycle": 5, "dott_scooter": 5 }
            },
            {
                "is_virtual_station": true,
                "lat": 50.83065429,
                "lon": 4.365205123,
                "name": "Ixelles 72",
                "region_id": "31531fbf-77ec-4002-a635-ebe80880ac44",
                "station_id": "6ebab573-9d70-4c6a-a156-ac02defb6e48",
                "vehicle_capacity": { "dott_bicycle": 5, "dott_scooter": 5 }
            },
            {
                "is_virtual_station": true,
                "lat": 50.86774612,
                "lon": 4.326407095,
                "name": "Jette 70",
                "region_id": "31531fbf-77ec-4002-a635-ebe80880ac44",
                "station_id": "c2e03a53-25e3-4c24-a53c-63687ebe9254",
                "vehicle_capacity": { "dott_bicycle": 5, "dott_scooter": 5 }
            },
            {
                "is_virtual_station": true,
                "lat": 50.80988893,
                "lon": 4.422370647,
                "name": "Watermael-Boitsfort 40",
                "region_id": "31531fbf-77ec-4002-a635-ebe80880ac44",
                "station_id": "34dece61-ddaf-4cf0-8ebd-84b633d00620",
                "vehicle_capacity": { "dott_bicycle": 5, "dott_scooter": 5 }
            },
            {
                "is_virtual_station": true,
                "lat": 50.84365265,
                "lon": 4.300718392,
                "name": "Anderlecht 12",
                "region_id": "31531fbf-77ec-4002-a635-ebe80880ac44",
                "station_id": "9e8e99bc-602f-40e7-b022-a4e1411e7c60",
                "vehicle_capacity": { "dott_bicycle": 5, "dott_scooter": 5 }
            },
            {
                "is_virtual_station": true,
                "lat": 50.80225508,
                "lon": 4.395832081,
                "name": "Ixelles 49",
                "region_id": "31531fbf-77ec-4002-a635-ebe80880ac44",
                "station_id": "e4023b7e-924b-4edf-9fd2-55ca9835b208",
                "vehicle_capacity": { "dott_bicycle": 5, "dott_scooter": 5 }
            },
            {
                "is_virtual_station": true,
                "lat": 50.86972039,
                "lon": 4.287270757,
                "name": "Berchem-Sainte-Agathe 9",
                "region_id": "31531fbf-77ec-4002-a635-ebe80880ac44",
                "station_id": "3ebaca72-d641-4002-aaa5-253b4f9f19c4",
                "vehicle_capacity": { "dott_bicycle": 5, "dott_scooter": 5 }
            },
            {
                "is_virtual_station": true,
                "lat": 50.83913187,
                "lon": 4.373229825,
                "name": "Ixelles 146",
                "region_id": "31531fbf-77ec-4002-a635-ebe80880ac44",
                "station_id": "44008390-d597-437d-b8ee-fa42373d81bc",
                "vehicle_capacity": { "dott_bicycle": 5, "dott_scooter": 5 }
            },
            {
                "is_virtual_station": true,
                "lat": 50.86992384,
                "lon": 4.418727922,
                "name": "Evere 62",
                "region_id": "31531fbf-77ec-4002-a635-ebe80880ac44",
                "station_id": "e4c49309-a100-4aae-aa0b-baf309d64c68",
                "vehicle_capacity": { "dott_bicycle": 5, "dott_scooter": 5 }
            },
            {
                "is_virtual_station": true,
                "lat": 50.83866045,
                "lon": 4.29723019,
                "name": "Anderlecht 60",
                "region_id": "31531fbf-77ec-4002-a635-ebe80880ac44",
                "station_id": "aeb33209-e57d-402c-8320-92f9560a588c",
                "vehicle_capacity": { "dott_bicycle": 5, "dott_scooter": 5 }
            },
            {
                "is_virtual_station": true,
                "lat": 50.82914972,
                "lon": 4.46015024,
                "name": "Woluwe-Saint-Pierre 46",
                "region_id": "31531fbf-77ec-4002-a635-ebe80880ac44",
                "station_id": "67c681dc-b2aa-4dab-a3c1-ec11e0a98e90",
                "vehicle_capacity": { "dott_bicycle": 5, "dott_scooter": 5 }
            },
            {
                "is_virtual_station": true,
                "lat": 50.85395394,
                "lon": 4.346852972,
                "name": "Ville 339",
                "region_id": "31531fbf-77ec-4002-a635-ebe80880ac44",
                "station_id": "578a5952-97c7-438f-a8ce-7680dc2de16c",
                "vehicle_capacity": { "dott_bicycle": 5, "dott_scooter": 5 }
            },
            {
                "is_virtual_station": true,
                "lat": 50.84984986,
                "lon": 4.355067034,
                "name": "Ville 370",
                "region_id": "31531fbf-77ec-4002-a635-ebe80880ac44",
                "station_id": "127552b4-ac33-489a-b23e-01d62eb36628",
                "vehicle_capacity": { "dott_bicycle": 5, "dott_scooter": 5 }
            },
            {
                "is_virtual_station": true,
                "lat": 50.8219532,
                "lon": 4.326056253,
                "name": "Forest 80",
                "region_id": "31531fbf-77ec-4002-a635-ebe80880ac44",
                "station_id": "5027ad84-8aca-4465-863d-a07ca07ee3bc",
                "vehicle_capacity": { "dott_bicycle": 5, "dott_scooter": 5 }
            },
            {
                "is_virtual_station": true,
                "lat": 50.84883605,
                "lon": 4.350781899,
                "name": "Ville 372",
                "region_id": "31531fbf-77ec-4002-a635-ebe80880ac44",
                "station_id": "6bc02dc7-b20c-4503-b0f5-8726300595b4",
                "vehicle_capacity": { "dott_bicycle": 5, "dott_scooter": 5 }
            },
            {
                "is_virtual_station": true,
                "lat": 50.83697569,
                "lon": 4.461313537,
                "name": "Woluwe-Saint-Pierre 150",
                "region_id": "31531fbf-77ec-4002-a635-ebe80880ac44",
                "station_id": "15bd26bc-5bc3-4b03-8d4e-18537c5df0f0",
                "vehicle_capacity": { "dott_bicycle": 5, "dott_scooter": 5 }
            },
            {
                "is_virtual_station": true,
                "lat": 50.83299272,
                "lon": 4.459134241,
                "name": "Woluwe-Saint-Pierre 91",
                "region_id": "31531fbf-77ec-4002-a635-ebe80880ac44",
                "station_id": "30acaf93-1d1d-4309-b4b2-750ef5cd3a00",
                "vehicle_capacity": { "dott_bicycle": 5, "dott_scooter": 5 }
            },
            {
                "is_virtual_station": true,
                "lat": 50.87032306,
                "lon": 4.351710475,
                "name": "Ville 476",
                "region_id": "31531fbf-77ec-4002-a635-ebe80880ac44",
                "station_id": "60dd01e9-43ca-42b4-89e5-5ce66a0619cc",
                "vehicle_capacity": { "dott_bicycle": 5, "dott_scooter": 5 }
            },
            {
                "is_virtual_station": true,
                "lat": 50.8437417,
                "lon": 4.444020038,
                "name": "Woluwe-Saint-Lambert 57",
                "region_id": "31531fbf-77ec-4002-a635-ebe80880ac44",
                "station_id": "0edc4a35-88e3-4cd4-9496-09a6e50cf5d4",
                "vehicle_capacity": { "dott_bicycle": 5, "dott_scooter": 5 }
            },
            {
                "is_virtual_station": true,
                "lat": 50.84042871,
                "lon": 4.465587245,
                "name": "Woluwe-Saint-Pierre 88",
                "region_id": "31531fbf-77ec-4002-a635-ebe80880ac44",
                "station_id": "d11494e9-caa5-4b73-8146-3ca6b7658744",
                "vehicle_capacity": { "dott_bicycle": 5, "dott_scooter": 5 }
            },
            {
                "is_virtual_station": true,
                "lat": 50.86001584,
                "lon": 4.409915639,
                "name": "Evere 13",
                "region_id": "31531fbf-77ec-4002-a635-ebe80880ac44",
                "station_id": "14f0dfbd-919b-4d56-acc7-8c1d78b28ea4",
                "vehicle_capacity": { "dott_bicycle": 5, "dott_scooter": 5 }
            },
            {
                "is_virtual_station": true,
                "lat": 50.84983135,
                "lon": 4.34554071,
                "name": "Ville 318",
                "region_id": "31531fbf-77ec-4002-a635-ebe80880ac44",
                "station_id": "be881c6d-0771-4b6b-8af7-c3233ea9516c",
                "vehicle_capacity": { "dott_bicycle": 5, "dott_scooter": 5 }
            },
            {
                "is_virtual_station": true,
                "lat": 50.89754414,
                "lon": 4.355047253,
                "name": "Ville 550",
                "region_id": "31531fbf-77ec-4002-a635-ebe80880ac44",
                "station_id": "be89c1e0-bb41-4919-9ed4-c4aae70ce008",
                "vehicle_capacity": { "dott_bicycle": 5, "dott_scooter": 5 }
            },
            {
                "is_virtual_station": true,
                "lat": 50.82556972,
                "lon": 4.460900237,
                "name": "Woluwe-Saint-Pierre 41",
                "region_id": "31531fbf-77ec-4002-a635-ebe80880ac44",
                "station_id": "aef71f12-9276-469b-a001-9c109162f9e4",
                "vehicle_capacity": { "dott_bicycle": 5, "dott_scooter": 5 }
            },
            {
                "is_virtual_station": true,
                "lat": 50.85104062,
                "lon": 4.348743454,
                "name": "Ville 407",
                "region_id": "31531fbf-77ec-4002-a635-ebe80880ac44",
                "station_id": "9559924f-57b5-4c01-832f-26ab56f76e24",
                "vehicle_capacity": { "dott_bicycle": 5, "dott_scooter": 5 }
            },
            {
                "is_virtual_station": true,
                "lat": 50.87055252,
                "lon": 4.311710021,
                "name": "Ganshoren 45",
                "region_id": "31531fbf-77ec-4002-a635-ebe80880ac44",
                "station_id": "3813a52d-7203-420d-b3bf-5be54f3306b0",
                "vehicle_capacity": { "dott_bicycle": 5, "dott_scooter": 5 }
            },
            {
                "is_virtual_station": true,
                "lat": 50.8924679,
                "lon": 4.329604782,
                "name": "Ville 453",
                "region_id": "31531fbf-77ec-4002-a635-ebe80880ac44",
                "station_id": "99bddebf-416d-4459-b1cf-98b704a974f0",
                "vehicle_capacity": { "dott_bicycle": 5, "dott_scooter": 5 }
            },
            {
                "is_virtual_station": true,
                "lat": 50.85680466,
                "lon": 4.350616918,
                "name": "Ville 347",
                "region_id": "31531fbf-77ec-4002-a635-ebe80880ac44",
                "station_id": "c157c231-0f6d-4b55-992d-bba448e3c99c",
                "vehicle_capacity": { "dott_bicycle": 5, "dott_scooter": 5 }
            },
            {
                "is_virtual_station": true,
                "lat": 50.84341324,
                "lon": 4.374299899,
                "name": "Ville 504",
                "region_id": "31531fbf-77ec-4002-a635-ebe80880ac44",
                "station_id": "68c39848-8c5d-4074-a054-34d96072eee8",
                "vehicle_capacity": { "dott_bicycle": 5, "dott_scooter": 5 }
            },
            {
                "is_virtual_station": true,
                "lat": 50.84218971,
                "lon": 4.454410247,
                "name": "Woluwe-Saint-Pierre 96",
                "region_id": "31531fbf-77ec-4002-a635-ebe80880ac44",
                "station_id": "094265e0-fc33-4320-b8d3-24897f8af518",
                "vehicle_capacity": { "dott_bicycle": 5, "dott_scooter": 5 }
            },
            {
                "is_virtual_station": true,
                "lat": 50.87331512,
                "lon": 4.336983565,
                "name": "Jette 59",
                "region_id": "31531fbf-77ec-4002-a635-ebe80880ac44",
                "station_id": "7217d5c9-934f-47c0-a164-9d11560e93a4",
                "vehicle_capacity": { "dott_bicycle": 5, "dott_scooter": 5 }
            },
            {
                "is_virtual_station": true,
                "lat": 50.84658558,
                "lon": 4.420556673,
                "name": "Woluwe-Saint-Lambert 20",
                "region_id": "31531fbf-77ec-4002-a635-ebe80880ac44",
                "station_id": "68634cb7-3463-49c9-ab31-80dce77dc144",
                "vehicle_capacity": { "dott_bicycle": 5, "dott_scooter": 5 }
            },
            {
                "is_virtual_station": true,
                "lat": 50.87281777,
                "lon": 4.312574373,
                "name": "Ganshoren 31",
                "region_id": "31531fbf-77ec-4002-a635-ebe80880ac44",
                "station_id": "6ca79d9b-3ee2-49d5-b0a9-fb0263d102e8",
                "vehicle_capacity": { "dott_bicycle": 5, "dott_scooter": 5 }
            },
            {
                "is_virtual_station": true,
                "lat": 50.86110656,
                "lon": 4.384549847,
                "name": "Schaerbeek 81",
                "region_id": "31531fbf-77ec-4002-a635-ebe80880ac44",
                "station_id": "c0a8c199-aa80-4e21-9a0e-4ea1cc1dc174",
                "vehicle_capacity": { "dott_bicycle": 5, "dott_scooter": 5 }
            },
            {
                "is_virtual_station": true,
                "lat": 50.8486626,
                "lon": 4.380729543,
                "name": "Ville 521",
                "region_id": "31531fbf-77ec-4002-a635-ebe80880ac44",
                "station_id": "92d33c6d-5c31-4b44-b8c0-50e68423f744",
                "vehicle_capacity": { "dott_bicycle": 5, "dott_scooter": 5 }
            },
            {
                "is_virtual_station": true,
                "lat": 50.83695282,
                "lon": 4.358563207,
                "name": "Ixelles 112",
                "region_id": "31531fbf-77ec-4002-a635-ebe80880ac44",
                "station_id": "d09e9b02-8e6d-4338-a428-0ba08a88a934",
                "vehicle_capacity": { "dott_bicycle": 5, "dott_scooter": 5 }
            },
            {
                "is_virtual_station": true,
                "lat": 50.82489504,
                "lon": 4.34500702,
                "name": "Saint-Gilles 37",
                "region_id": "31531fbf-77ec-4002-a635-ebe80880ac44",
                "station_id": "37513638-0bee-468c-b168-90cae7833aa4",
                "vehicle_capacity": { "dott_bicycle": 5, "dott_scooter": 5 }
            },
            {
                "is_virtual_station": true,
                "lat": 50.80627612,
                "lon": 4.317371814,
                "name": "Forest 38",
                "region_id": "31531fbf-77ec-4002-a635-ebe80880ac44",
                "station_id": "598c5ddd-a664-4ace-bd2e-ced8bfcc09f0",
                "vehicle_capacity": { "dott_bicycle": 5, "dott_scooter": 5 }
            },
            {
                "is_virtual_station": true,
                "lat": 50.84260641,
                "lon": 4.352714388,
                "name": "Ville 265",
                "region_id": "31531fbf-77ec-4002-a635-ebe80880ac44",
                "station_id": "5b403d15-7944-427b-afc4-03b5c6f124f0",
                "vehicle_capacity": { "dott_bicycle": 5, "dott_scooter": 5 }
            },
            {
                "is_virtual_station": true,
                "lat": 50.85873432,
                "lon": 4.360221639,
                "name": "Saint-Josse-ten-Noode 21",
                "region_id": "31531fbf-77ec-4002-a635-ebe80880ac44",
                "station_id": "880604a5-1248-48bb-acee-3db5f122cfe0",
                "vehicle_capacity": { "dott_bicycle": 5, "dott_scooter": 5 }
            },
            {
                "is_virtual_station": true,
                "lat": 50.81646795,
                "lon": 4.391486353,
                "name": "Ixelles 30",
                "region_id": "31531fbf-77ec-4002-a635-ebe80880ac44",
                "station_id": "2a4eb47b-2244-4ced-8f22-1c5868c155bc",
                "vehicle_capacity": { "dott_bicycle": 5, "dott_scooter": 5 }
            },
            {
                "is_virtual_station": true,
                "lat": 50.83935971,
                "lon": 4.464630242,
                "name": "Woluwe-Saint-Pierre 93",
                "region_id": "31531fbf-77ec-4002-a635-ebe80880ac44",
                "station_id": "c4ecbcb3-d883-4a01-b550-bc48c116ebd8",
                "vehicle_capacity": { "dott_bicycle": 5, "dott_scooter": 5 }
            },
            {
                "is_virtual_station": true,
                "lat": 50.87503996,
                "lon": 4.300128523,
                "name": "Ganshoren 8",
                "region_id": "31531fbf-77ec-4002-a635-ebe80880ac44",
                "station_id": "62af51b1-a176-4b21-86b4-c34e09ea0c2c",
                "vehicle_capacity": { "dott_bicycle": 5, "dott_scooter": 5 }
            },
            {
                "is_virtual_station": true,
                "lat": 50.88502936,
                "lon": 4.317491416,
                "name": "Jette 85",
                "region_id": "31531fbf-77ec-4002-a635-ebe80880ac44",
                "station_id": "2b27a1be-37a8-4a86-9c96-bc401ad37b38",
                "vehicle_capacity": { "dott_bicycle": 5, "dott_scooter": 5 }
            },
            {
                "is_virtual_station": true,
                "lat": 50.84021627,
                "lon": 4.441020404,
                "name": "Woluwe-Saint-Lambert 33",
                "region_id": "31531fbf-77ec-4002-a635-ebe80880ac44",
                "station_id": "f11d3916-d3b4-47dc-9ee6-872c7aebf18c",
                "vehicle_capacity": { "dott_bicycle": 5, "dott_scooter": 5 }
            },
            {
                "is_virtual_station": true,
                "lat": 50.86183453,
                "lon": 4.353991362,
                "name": "Woluwe-Saint-Lambert 79",
                "region_id": "31531fbf-77ec-4002-a635-ebe80880ac44",
                "station_id": "109b3596-ef72-46f2-97e4-8f3a7d2697d0",
                "vehicle_capacity": { "dott_bicycle": 5, "dott_scooter": 5 }
            },
            {
                "is_virtual_station": true,
                "lat": 50.85527157,
                "lon": 4.358947034,
                "name": "Ville 165",
                "region_id": "31531fbf-77ec-4002-a635-ebe80880ac44",
                "station_id": "134cca0b-c856-4412-8ae2-80bd1041ba50",
                "vehicle_capacity": { "dott_bicycle": 5, "dott_scooter": 5 }
            },
            {
                "is_virtual_station": true,
                "lat": 50.85442108,
                "lon": 4.42526196,
                "name": "Woluwe-Saint-Lambert 27",
                "region_id": "31531fbf-77ec-4002-a635-ebe80880ac44",
                "station_id": "59c9b217-7df2-4711-af09-f727507b8e28",
                "vehicle_capacity": { "dott_bicycle": 5, "dott_scooter": 5 }
            },
            {
                "is_virtual_station": true,
                "lat": 50.82417485,
                "lon": 4.324092491,
                "name": "Forest 95",
                "region_id": "31531fbf-77ec-4002-a635-ebe80880ac44",
                "station_id": "2ebed6b6-2552-4852-b9a7-9f008fd73c48",
                "vehicle_capacity": { "dott_bicycle": 5, "dott_scooter": 5 }
            },
            {
                "is_virtual_station": true,
                "lat": 50.84693216,
                "lon": 4.348265298,
                "name": "Ville 394",
                "region_id": "31531fbf-77ec-4002-a635-ebe80880ac44",
                "station_id": "9f3dd53f-18eb-4828-bc63-b190b603933c",
                "vehicle_capacity": { "dott_bicycle": 5, "dott_scooter": 5 }
            },
            {
                "is_virtual_station": true,
                "lat": 50.83372789,
                "lon": 4.351001296,
                "name": "Saint-Gilles 50",
                "region_id": "31531fbf-77ec-4002-a635-ebe80880ac44",
                "station_id": "470425b4-3816-415b-943d-1382902cb370",
                "vehicle_capacity": { "dott_bicycle": 5, "dott_scooter": 5 }
            },
            {
                "is_virtual_station": true,
                "lat": 50.82537352,
                "lon": 4.379410267,
                "name": "Ixelles 15",
                "region_id": "31531fbf-77ec-4002-a635-ebe80880ac44",
                "station_id": "5c53409d-9538-4cfa-a0bc-ce5fb2e5a920",
                "vehicle_capacity": { "dott_bicycle": 5, "dott_scooter": 5 }
            },
            {
                "is_virtual_station": true,
                "lat": 50.83975034,
                "lon": 4.370140012,
                "name": "Ville 74",
                "region_id": "31531fbf-77ec-4002-a635-ebe80880ac44",
                "station_id": "4d332139-019a-4b1e-bb27-8e8d5aed5a04",
                "vehicle_capacity": { "dott_bicycle": 5, "dott_scooter": 5 }
            },
            {
                "is_virtual_station": true,
                "lat": 50.82404332,
                "lon": 4.285782285,
                "name": "Anderlecht 216",
                "region_id": "31531fbf-77ec-4002-a635-ebe80880ac44",
                "station_id": "4f19cb34-33dd-45fa-9a5a-803dc55223c4",
                "vehicle_capacity": { "dott_bicycle": 5, "dott_scooter": 5 }
            },
            {
                "is_virtual_station": true,
                "lat": 50.88240795,
                "lon": 4.322182581,
                "name": "Jette 52",
                "region_id": "31531fbf-77ec-4002-a635-ebe80880ac44",
                "station_id": "c3b7ed20-7976-40a4-8b66-cb82e24196ac",
                "vehicle_capacity": { "dott_bicycle": 5, "dott_scooter": 5 }
            },
            {
                "is_virtual_station": true,
                "lat": 50.8377227,
                "lon": 4.340664535,
                "name": "Saint-Gilles 75",
                "region_id": "31531fbf-77ec-4002-a635-ebe80880ac44",
                "station_id": "1509e2ba-c8e2-440e-8457-091d169ad524",
                "vehicle_capacity": { "dott_bicycle": 5, "dott_scooter": 5 }
            },
            {
                "is_virtual_station": true,
                "lat": 50.84579578,
                "lon": 4.398054157,
                "name": "Schaerbeek 91",
                "region_id": "31531fbf-77ec-4002-a635-ebe80880ac44",
                "station_id": "625df5e6-b686-4073-9ea9-080cb05182a8",
                "vehicle_capacity": { "dott_bicycle": 5, "dott_scooter": 5 }
            },
            {
                "is_virtual_station": true,
                "lat": 50.85242615,
                "lon": 4.361910224,
                "name": "Ville 225",
                "region_id": "31531fbf-77ec-4002-a635-ebe80880ac44",
                "station_id": "a2ab15cc-997d-4f1d-99c2-5688033019a8",
                "vehicle_capacity": { "dott_bicycle": 5, "dott_scooter": 5 }
            },
            {
                "is_virtual_station": true,
                "lat": 50.83359387,
                "lon": 4.343921877,
                "name": "Ville 25",
                "region_id": "31531fbf-77ec-4002-a635-ebe80880ac44",
                "station_id": "cd3afc45-00b5-407b-b131-64d298302814",
                "vehicle_capacity": { "dott_bicycle": 5, "dott_scooter": 5 }
            },
            {
                "is_virtual_station": true,
                "lat": 50.8528418,
                "lon": 4.389877907,
                "name": "Schaerbeek 200",
                "region_id": "31531fbf-77ec-4002-a635-ebe80880ac44",
                "station_id": "3353520c-b62e-4717-8762-058eccccc290",
                "vehicle_capacity": { "dott_bicycle": 5, "dott_scooter": 5 }
            },
            {
                "is_virtual_station": true,
                "lat": 50.84068044,
                "lon": 4.331408882,
                "name": "Anderlecht 79",
                "region_id": "31531fbf-77ec-4002-a635-ebe80880ac44",
                "station_id": "122b790c-0aae-454d-9abd-3260d9de2508",
                "vehicle_capacity": { "dott_bicycle": 5, "dott_scooter": 5 }
            },
            {
                "is_virtual_station": true,
                "lat": 50.82618253,
                "lon": 4.329396684,
                "name": "Forest 34",
                "region_id": "31531fbf-77ec-4002-a635-ebe80880ac44",
                "station_id": "2919fd2b-1c79-45e9-84e9-86f52ac395a8",
                "vehicle_capacity": { "dott_bicycle": 5, "dott_scooter": 5 }
            },
            {
                "is_virtual_station": true,
                "lat": 50.83907139,
                "lon": 4.353298025,
                "name": "Ville 255",
                "region_id": "31531fbf-77ec-4002-a635-ebe80880ac44",
                "station_id": "d97e9c5a-2945-4e92-9121-d3e0782bd5d8",
                "vehicle_capacity": { "dott_bicycle": 5, "dott_scooter": 5 }
            },
            {
                "is_virtual_station": true,
                "lat": 50.85028041,
                "lon": 4.335756612,
                "name": "Molenbeek-Saint-Jean 4",
                "region_id": "31531fbf-77ec-4002-a635-ebe80880ac44",
                "station_id": "03bc08f7-a4a5-4789-8c91-d36634259e60",
                "vehicle_capacity": { "dott_bicycle": 5, "dott_scooter": 5 }
            },
            {
                "is_virtual_station": true,
                "lat": 50.84153287,
                "lon": 4.321257113,
                "name": "Anderlecht 196",
                "region_id": "31531fbf-77ec-4002-a635-ebe80880ac44",
                "station_id": "24d690dd-8db1-4202-980f-2dd528946e60",
                "vehicle_capacity": { "dott_bicycle": 5, "dott_scooter": 5 }
            },
            {
                "is_virtual_station": true,
                "lat": 50.84670967,
                "lon": 4.337798277,
                "name": "Ville 71",
                "region_id": "31531fbf-77ec-4002-a635-ebe80880ac44",
                "station_id": "81b5f161-6926-49d8-a3d7-93441d1f0f08",
                "vehicle_capacity": { "dott_bicycle": 5, "dott_scooter": 5 }
            },
            {
                "is_virtual_station": true,
                "lat": 50.83640384,
                "lon": 4.316493884,
                "name": "Anderlecht 66",
                "region_id": "31531fbf-77ec-4002-a635-ebe80880ac44",
                "station_id": "c6d7e335-6975-4819-a361-21efc9da5bc4",
                "vehicle_capacity": { "dott_bicycle": 5, "dott_scooter": 5 }
            },
            {
                "is_virtual_station": true,
                "lat": 50.90977063,
                "lon": 4.390883802,
                "name": "Ville 33",
                "region_id": "31531fbf-77ec-4002-a635-ebe80880ac44",
                "station_id": "4f3aeca1-f36a-40a5-8cb3-98c12e94755c",
                "vehicle_capacity": { "dott_bicycle": 5, "dott_scooter": 5 }
            },
            {
                "is_virtual_station": true,
                "lat": 50.81206098,
                "lon": 4.306589512,
                "name": "Forest 47",
                "region_id": "31531fbf-77ec-4002-a635-ebe80880ac44",
                "station_id": "1ca6e467-0def-40d8-81cb-41cb07539eec",
                "vehicle_capacity": { "dott_bicycle": 5, "dott_scooter": 5 }
            },
            {
                "is_virtual_station": true,
                "lat": 50.84943643,
                "lon": 4.402590863,
                "name": "Schaerbeek 182",
                "region_id": "31531fbf-77ec-4002-a635-ebe80880ac44",
                "station_id": "693e432f-88d1-449d-aa63-17c9ae871d90",
                "vehicle_capacity": { "dott_bicycle": 5, "dott_scooter": 5 }
            },
            {
                "is_virtual_station": true,
                "lat": 50.81554463,
                "lon": 4.323698466,
                "name": "Forest 44",
                "region_id": "31531fbf-77ec-4002-a635-ebe80880ac44",
                "station_id": "4b5de38d-f610-4bf7-a346-768b4772fb18",
                "vehicle_capacity": { "dott_bicycle": 5, "dott_scooter": 5 }
            },
            {
                "is_virtual_station": true,
                "lat": 50.824123,
                "lon": 4.330333475,
                "name": "Forest 77",
                "region_id": "31531fbf-77ec-4002-a635-ebe80880ac44",
                "station_id": "ba062c78-914e-44cd-a789-a98de2c58c2c",
                "vehicle_capacity": { "dott_bicycle": 5, "dott_scooter": 5 }
            },
            {
                "is_virtual_station": true,
                "lat": 50.83118372,
                "lon": 4.455376241,
                "name": "Woluwe-Saint-Pierre 72",
                "region_id": "31531fbf-77ec-4002-a635-ebe80880ac44",
                "station_id": "8eedd9e4-a767-4e72-8bdb-6176bd80c86c",
                "vehicle_capacity": { "dott_bicycle": 5, "dott_scooter": 5 }
            },
            {
                "is_virtual_station": true,
                "lat": 50.83876765,
                "lon": 4.305143488,
                "name": "Anderlecht 23",
                "region_id": "31531fbf-77ec-4002-a635-ebe80880ac44",
                "station_id": "41530d13-5d86-4f56-bba6-6a529f6139ec",
                "vehicle_capacity": { "dott_bicycle": 5, "dott_scooter": 5 }
            },
            {
                "is_virtual_station": true,
                "lat": 50.84413429,
                "lon": 4.345611286,
                "name": "Ville 325",
                "region_id": "31531fbf-77ec-4002-a635-ebe80880ac44",
                "station_id": "b473b79a-cbea-405f-a2e2-b06ca0b8d0c4",
                "vehicle_capacity": { "dott_bicycle": 5, "dott_scooter": 5 }
            },
            {
                "is_virtual_station": true,
                "lat": 50.84781525,
                "lon": 4.362410892,
                "name": "Ville 411",
                "region_id": "31531fbf-77ec-4002-a635-ebe80880ac44",
                "station_id": "9237b016-e9b8-4580-8248-fc3570186a58",
                "vehicle_capacity": { "dott_bicycle": 5, "dott_scooter": 5 }
            },
            {
                "is_virtual_station": true,
                "lat": 50.83969675,
                "lon": 4.291615193,
                "name": "Anderlecht 84",
                "region_id": "31531fbf-77ec-4002-a635-ebe80880ac44",
                "station_id": "cd42ef27-4a94-47aa-b77b-7dcd3eb67644",
                "vehicle_capacity": { "dott_bicycle": 5, "dott_scooter": 5 }
            },
            {
                "is_virtual_station": true,
                "lat": 50.82513647,
                "lon": 4.298158506,
                "name": "Anderlecht 211",
                "region_id": "31531fbf-77ec-4002-a635-ebe80880ac44",
                "station_id": "ba7f1638-43ab-412e-9fa9-e82190f1b4a4",
                "vehicle_capacity": { "dott_bicycle": 5, "dott_scooter": 5 }
            },
            {
                "is_virtual_station": true,
                "lat": 50.87061677,
                "lon": 4.293337128,
                "name": "Berchem-Sainte-Agathe 32",
                "region_id": "31531fbf-77ec-4002-a635-ebe80880ac44",
                "station_id": "4a0acf03-652a-4b25-b866-1984deacce30",
                "vehicle_capacity": { "dott_bicycle": 5, "dott_scooter": 5 }
            },
            {
                "is_virtual_station": true,
                "lat": 50.85291703,
                "lon": 4.353235368,
                "name": "Ville 355",
                "region_id": "31531fbf-77ec-4002-a635-ebe80880ac44",
                "station_id": "de125bec-a893-49a5-9ac2-20706f9f7284",
                "vehicle_capacity": { "dott_bicycle": 5, "dott_scooter": 5 }
            },
            {
                "is_virtual_station": true,
                "lat": 50.85837671,
                "lon": 4.359807285,
                "name": "Saint-Josse-ten-Noode 19",
                "region_id": "31531fbf-77ec-4002-a635-ebe80880ac44",
                "station_id": "597c15c9-2ae0-458d-b8ab-785903c85a48",
                "vehicle_capacity": { "dott_bicycle": 5, "dott_scooter": 5 }
            },
            {
                "is_virtual_station": true,
                "lat": 50.83979456,
                "lon": 4.437030585,
                "name": "Woluwe-Saint-Lambert 34",
                "region_id": "31531fbf-77ec-4002-a635-ebe80880ac44",
                "station_id": "d2f6b078-3e20-4ccc-b560-b67db16a4c64",
                "vehicle_capacity": { "dott_bicycle": 5, "dott_scooter": 5 }
            },
            {
                "is_virtual_station": true,
                "lat": 50.84382614,
                "lon": 4.319788971,
                "name": "Anderlecht 192",
                "region_id": "31531fbf-77ec-4002-a635-ebe80880ac44",
                "station_id": "b7558ba1-9308-4f41-b2aa-1b06f7c5bad8",
                "vehicle_capacity": { "dott_bicycle": 5, "dott_scooter": 5 }
            },
            {
                "is_virtual_station": true,
                "lat": 50.86525531,
                "lon": 4.318227663,
                "name": "Koekelberg 10",
                "region_id": "31531fbf-77ec-4002-a635-ebe80880ac44",
                "station_id": "52b745b0-e102-48d4-b018-19d2510bf154",
                "vehicle_capacity": { "dott_bicycle": 5, "dott_scooter": 5 }
            },
            {
                "is_virtual_station": true,
                "lat": 50.81887864,
                "lon": 4.357692944,
                "name": "Ixelles 60",
                "region_id": "31531fbf-77ec-4002-a635-ebe80880ac44",
                "station_id": "3d020e9c-147c-4836-932f-8975d4e4a60c",
                "vehicle_capacity": { "dott_bicycle": 5, "dott_scooter": 5 }
            },
            {
                "is_virtual_station": true,
                "lat": 50.84932136,
                "lon": 4.431417483,
                "name": "Woluwe-Saint-Lambert 9",
                "region_id": "31531fbf-77ec-4002-a635-ebe80880ac44",
                "station_id": "e02aef86-26f8-465a-ae17-b19a46d8372c",
                "vehicle_capacity": { "dott_bicycle": 5, "dott_scooter": 5 }
            },
            {
                "is_virtual_station": true,
                "lat": 50.86587452,
                "lon": 4.315925828,
                "name": "Koekelberg 14",
                "region_id": "31531fbf-77ec-4002-a635-ebe80880ac44",
                "station_id": "537093d8-c259-43f4-96ec-664f58eca2d8",
                "vehicle_capacity": { "dott_bicycle": 5, "dott_scooter": 5 }
            },
            {
                "is_virtual_station": true,
                "lat": 50.84559894,
                "lon": 4.314159889,
                "name": "Anderlecht 62",
                "region_id": "31531fbf-77ec-4002-a635-ebe80880ac44",
                "station_id": "11131675-6175-4e2b-b761-bce6b0a15f1c",
                "vehicle_capacity": { "dott_bicycle": 5, "dott_scooter": 5 }
            },
            {
                "is_virtual_station": true,
                "lat": 50.87129549,
                "lon": 4.305427435,
                "name": "Ganshoren 42",
                "region_id": "31531fbf-77ec-4002-a635-ebe80880ac44",
                "station_id": "28901664-e846-4df0-815b-a36c037922a4",
                "vehicle_capacity": { "dott_bicycle": 5, "dott_scooter": 5 }
            },
            {
                "is_virtual_station": true,
                "lat": 50.89566208,
                "lon": 4.389511139,
                "name": "Ville 564",
                "region_id": "31531fbf-77ec-4002-a635-ebe80880ac44",
                "station_id": "9a62e0bc-5455-4d11-b67f-01deb50c5ba8",
                "vehicle_capacity": { "dott_bicycle": 5, "dott_scooter": 5 }
            },
            {
                "is_virtual_station": true,
                "lat": 50.85111854,
                "lon": 4.386743565,
                "name": "Schaerbeek 55",
                "region_id": "31531fbf-77ec-4002-a635-ebe80880ac44",
                "station_id": "7e1cd6c2-6da3-40dc-8daa-1861bc1cf1ac",
                "vehicle_capacity": { "dott_bicycle": 5, "dott_scooter": 5 }
            },
            {
                "is_virtual_station": true,
                "lat": 50.83983788,
                "lon": 4.324345154,
                "name": "Anderlecht 204",
                "region_id": "31531fbf-77ec-4002-a635-ebe80880ac44",
                "station_id": "6ccebac9-0967-4d2a-9999-74aa551df8cc",
                "vehicle_capacity": { "dott_bicycle": 5, "dott_scooter": 5 }
            },
            {
                "is_virtual_station": true,
                "lat": 50.78871771,
                "lon": 4.424765795,
                "name": "Watermael-Boitsfort 59",
                "region_id": "31531fbf-77ec-4002-a635-ebe80880ac44",
                "station_id": "7d70391c-de1f-4320-9204-825c64ae1e20",
                "vehicle_capacity": { "dott_bicycle": 5, "dott_scooter": 5 }
            },
            {
                "is_virtual_station": true,
                "lat": 50.83098555,
                "lon": 4.289480489,
                "name": "Anderlecht 55",
                "region_id": "31531fbf-77ec-4002-a635-ebe80880ac44",
                "station_id": "daae6aea-7810-4b35-9715-cd318a609e44",
                "vehicle_capacity": { "dott_bicycle": 5, "dott_scooter": 5 }
            },
            {
                "is_virtual_station": true,
                "lat": 50.78907753,
                "lon": 4.333787137,
                "name": "Uccle 3",
                "region_id": "31531fbf-77ec-4002-a635-ebe80880ac44",
                "station_id": "4280a2ea-a7c1-47ce-aa99-57ef86677bf0",
                "vehicle_capacity": { "dott_bicycle": 5, "dott_scooter": 5 }
            },
            {
                "is_virtual_station": true,
                "lat": 50.83077375,
                "lon": 4.309510784,
                "name": "Anderlecht 24",
                "region_id": "31531fbf-77ec-4002-a635-ebe80880ac44",
                "station_id": "d2129fbe-cc0f-4111-8b33-a20c9c50cf48",
                "vehicle_capacity": { "dott_bicycle": 5, "dott_scooter": 5 }
            },
            {
                "is_virtual_station": true,
                "lat": 50.8375842,
                "lon": 4.381882263,
                "name": "Etterbeek 32",
                "region_id": "31531fbf-77ec-4002-a635-ebe80880ac44",
                "station_id": "89847033-8a92-4103-92f2-ca9c5156e100",
                "vehicle_capacity": { "dott_bicycle": 5, "dott_scooter": 5 }
            },
            {
                "is_virtual_station": true,
                "lat": 50.85216352,
                "lon": 4.357260538,
                "name": "Ville 234",
                "region_id": "31531fbf-77ec-4002-a635-ebe80880ac44",
                "station_id": "28006489-5d35-4383-ba8d-09b4bb5b3864",
                "vehicle_capacity": { "dott_bicycle": 5, "dott_scooter": 5 }
            },
            {
                "is_virtual_station": true,
                "lat": 50.83788972,
                "lon": 4.412410258,
                "name": "Woluwe-Saint-Pierre 17",
                "region_id": "31531fbf-77ec-4002-a635-ebe80880ac44",
                "station_id": "b51ba74c-a31e-4539-9866-1d4bd6b143bc",
                "vehicle_capacity": { "dott_bicycle": 5, "dott_scooter": 5 }
            },
            {
                "is_virtual_station": true,
                "lat": 50.833373,
                "lon": 4.374386446,
                "name": "Ixelles 131",
                "region_id": "31531fbf-77ec-4002-a635-ebe80880ac44",
                "station_id": "627a9dbe-4e28-4118-93de-a7a279dba838",
                "vehicle_capacity": { "dott_bicycle": 5, "dott_scooter": 5 }
            },
            {
                "is_virtual_station": true,
                "lat": 50.84019971,
                "lon": 4.466650242,
                "name": "Woluwe-Saint-Pierre 100",
                "region_id": "31531fbf-77ec-4002-a635-ebe80880ac44",
                "station_id": "438644cc-507d-49e3-bdf7-8b9c2a143118",
                "vehicle_capacity": { "dott_bicycle": 5, "dott_scooter": 5 }
            },
            {
                "is_virtual_station": true,
                "lat": 50.83914639,
                "lon": 4.323334495,
                "name": "Anderlecht 150",
                "region_id": "31531fbf-77ec-4002-a635-ebe80880ac44",
                "station_id": "1af0a382-15d2-452f-a6d9-3126f34128c8",
                "vehicle_capacity": { "dott_bicycle": 5, "dott_scooter": 5 }
            },
            {
                "is_virtual_station": true,
                "lat": 50.82977958,
                "lon": 4.384998583,
                "name": "Etterbeek 80",
                "region_id": "31531fbf-77ec-4002-a635-ebe80880ac44",
                "station_id": "c83174d5-03bd-46ba-a113-a2101120d42c",
                "vehicle_capacity": { "dott_bicycle": 5, "dott_scooter": 5 }
            },
            {
                "is_virtual_station": true,
                "lat": 50.83572972,
                "lon": 4.430930253,
                "name": "Woluwe-Saint-Pierre 125",
                "region_id": "31531fbf-77ec-4002-a635-ebe80880ac44",
                "station_id": "71e54675-67ef-4b26-8484-4f788d13a694",
                "vehicle_capacity": { "dott_bicycle": 5, "dott_scooter": 5 }
            },
            {
                "is_virtual_station": true,
                "lat": 50.8210453,
                "lon": 4.361208289,
                "name": "Ixelles 70",
                "region_id": "31531fbf-77ec-4002-a635-ebe80880ac44",
                "station_id": "7ba7bd17-c2ce-419a-89f1-43cb03315260",
                "vehicle_capacity": { "dott_bicycle": 5, "dott_scooter": 5 }
            },
            {
                "is_virtual_station": true,
                "lat": 50.84809859,
                "lon": 4.425536275,
                "name": "Woluwe-Saint-Lambert 21",
                "region_id": "31531fbf-77ec-4002-a635-ebe80880ac44",
                "station_id": "cd47b59e-18a9-4786-bd06-4b5f844860dc",
                "vehicle_capacity": { "dott_bicycle": 5, "dott_scooter": 5 }
            },
            {
                "is_virtual_station": true,
                "lat": 50.8925784,
                "lon": 4.417601825,
                "name": "Ville 572",
                "region_id": "31531fbf-77ec-4002-a635-ebe80880ac44",
                "station_id": "1fc6ccb8-b273-4c72-baa6-7ac4071b993c",
                "vehicle_capacity": { "dott_bicycle": 5, "dott_scooter": 5 }
            },
            {
                "is_virtual_station": true,
                "lat": 50.86344631,
                "lon": 4.328518012,
                "name": "Koekelberg 6",
                "region_id": "31531fbf-77ec-4002-a635-ebe80880ac44",
                "station_id": "d5282e2b-c42d-42b0-945f-b369129bb228",
                "vehicle_capacity": { "dott_bicycle": 5, "dott_scooter": 5 }
            },
            {
                "is_virtual_station": true,
                "lat": 50.84630967,
                "lon": 4.289832659,
                "name": "Molenbeek-Saint-Jean 31",
                "region_id": "31531fbf-77ec-4002-a635-ebe80880ac44",
                "station_id": "041b0b30-74fa-4f1b-b074-909071f441b8",
                "vehicle_capacity": { "dott_bicycle": 5, "dott_scooter": 5 }
            },
            {
                "is_virtual_station": true,
                "lat": 50.79822639,
                "lon": 4.401855012,
                "name": "Watermael-Boitsfort 11",
                "region_id": "31531fbf-77ec-4002-a635-ebe80880ac44",
                "station_id": "d121e778-d68d-4728-9b57-762ec1645988",
                "vehicle_capacity": { "dott_bicycle": 5, "dott_scooter": 5 }
            },
            {
                "is_virtual_station": true,
                "lat": 50.86034514,
                "lon": 4.283209783,
                "name": "Berchem-Sainte-Agathe 2",
                "region_id": "31531fbf-77ec-4002-a635-ebe80880ac44",
                "station_id": "b4fa335e-8b7b-48b9-b6ca-4dd9200f5770",
                "vehicle_capacity": { "dott_bicycle": 5, "dott_scooter": 5 }
            },
            {
                "is_virtual_station": true,
                "lat": 50.84341834,
                "lon": 4.328460384,
                "name": "Anderlecht 17",
                "region_id": "31531fbf-77ec-4002-a635-ebe80880ac44",
                "station_id": "1664251e-6df3-4ba3-931a-15e3298e8ebc",
                "vehicle_capacity": { "dott_bicycle": 5, "dott_scooter": 5 }
            },
            {
                "is_virtual_station": true,
                "lat": 50.8229283,
                "lon": 4.384851347,
                "name": "Ixelles 16",
                "region_id": "31531fbf-77ec-4002-a635-ebe80880ac44",
                "station_id": "d6503a06-3606-4ee6-8094-848ee2374d50",
                "vehicle_capacity": { "dott_bicycle": 5, "dott_scooter": 5 }
            },
            {
                "is_virtual_station": true,
                "lat": 50.84051573,
                "lon": 4.370305368,
                "name": "Ville 491",
                "region_id": "31531fbf-77ec-4002-a635-ebe80880ac44",
                "station_id": "b1ecd7ce-38e0-4f18-a449-729a4d333ae4",
                "vehicle_capacity": { "dott_bicycle": 5, "dott_scooter": 5 }
            },
            {
                "is_virtual_station": true,
                "lat": 50.84572994,
                "lon": 4.335178283,
                "name": "Anderlecht 80",
                "region_id": "31531fbf-77ec-4002-a635-ebe80880ac44",
                "station_id": "efdae89e-798c-4d2a-b6bd-1d1dd034efb0",
                "vehicle_capacity": { "dott_bicycle": 5, "dott_scooter": 5 }
            },
            {
                "is_virtual_station": true,
                "lat": 50.878419,
                "lon": 4.389919095,
                "name": "Schaerbeek 127",
                "region_id": "31531fbf-77ec-4002-a635-ebe80880ac44",
                "station_id": "557dd42c-a175-4036-bda1-0c6def4e58d4",
                "vehicle_capacity": { "dott_bicycle": 5, "dott_scooter": 5 }
            },
            {
                "is_virtual_station": true,
                "lat": 50.84731757,
                "lon": 4.463502652,
                "name": "Woluwe-Saint-Pierre 144",
                "region_id": "31531fbf-77ec-4002-a635-ebe80880ac44",
                "station_id": "5f598bb6-ae07-49e0-a68c-7060546767bc",
                "vehicle_capacity": { "dott_bicycle": 5, "dott_scooter": 5 }
            },
            {
                "is_virtual_station": true,
                "lat": 50.82070565,
                "lon": 4.293921583,
                "name": "Anderlecht 8",
                "region_id": "31531fbf-77ec-4002-a635-ebe80880ac44",
                "station_id": "669da4bf-8de8-4311-aa72-3d0419bb2a24",
                "vehicle_capacity": { "dott_bicycle": 5, "dott_scooter": 5 }
            },