{
    "last_updated": "2025-10-21T04:13:19.619Z",
    "ttl": 300,
    "version": "3.0",
    "data": {
        "stations": [
            {
                "station_id": "1",
                "name": [{ "text": "CLARENDON ROW", "language": "en" }],
                "lat": 53.340927,
                "lon": -6.262501,
                "address": "Clarendon Row",
                "capacity": 31
            },
            {
                "station_id": "2",
                "name": [{ "text": "BLESSINGTON STREET", "language": "en" }],
                "lat": 53.356769,
                "lon": -6.26814,
                "address": "Blessington Street",
                "capacity": 20
            },
            {
                "station_id": "3",
                "name": [{ "text": "BOLTON STREET", "language": "en" }],
                "lat": 53.351182,
                "lon": -6.269859,
                "address": "Bolton Street",
                "capacity": 20
            },
            {
                "station_id": "4",
                "name": [{ "text": "GREEK STREET", "language": "en" }],
                "lat": 53.346874,
                "lon": -6.272976,
                "address": "Greek Street",
                "capacity": 20
            },
            {
                "station_id": "5",
                "name": [{ "text": "CHARLEMONT PLACE", "language": "en" }],
                "lat": 53.330662,
                "lon": -6.260177,
                "address": "Charlemont Street",
                "capacity": 40
            },
            {
                "station_id": "6",
                "name": [{ "text": "CHRISTCHURCH PLACE", "language": "en" }],
                "lat": 53.343368,
                "lon": -6.27012,
                "address": "Christchurch Place",
                "capacity": 20
            },
            {
                "station_id": "7",
                "name": [{ "text": "HIGH STREET", "language": "en" }],
                "lat": 53.343565,
                "lon": -6.275071,
                "address": "High Street",
                "capacity": 29
            },
            {
                "station_id": "8",
                "name": [{ "text": "CUSTOM HOUSE QUAY", "language": "en" }],
                "lat": 53.347884,
                "lon": -6.248048,
                "address": "Custom House Quay",
                "capacity": 30
            },
            {
                "station_id": "9",
                "name": [{ "text": "EXCHEQUER STREET", "language": "en" }],
                "lat": 53.343034,
                "lon": -6.263578,
                "address": "Exchequer Street",
                "capacity": 24
            },
            {
                "station_id": "10",
                "name": [{ "text": "DAME STREET", "language": "en" }],
                "lat": 53.344007,
                "lon": -6.266802,
                "address": "Dame Street",
                "capacity": 16
            },
            {
                "station_id": "11",
                "name": [{ "text": "EARLSFORT TERRACE", "language": "en" }],
                "lat": 53.334295,
                "lon": -6.258503,
                "address": "Earlsfort Terrace",
                "capacity": 30
            },
            {
                "station_id": "12",
                "name": [{ "text": "ECCLES STREET", "language": "en" }],
                "lat": 53.359246,
                "lon": -6.269779,
                "address": "Eccles Street",
                "capacity": 20
            },
            {
                "station_id": "13",
                "name": [
                    { "text": "FITZWILLIAM SQUARE WEST", "language": "en" }
                ],
                "lat": 53.336074,
                "lon": -6.252825,
                "address": "Fitzwilliam Square West",
                "capacity": 30
            },
            {
                "station_id": "14",
                "name": [{ "text": "FOWNES STREET UPPER", "language": "en" }],
                "lat": 53.344603,
                "lon": -6.263371,
                "address": "Fownes Street Upper",
                "capacity": 30
            },
            {
                "station_id": "15",
                "name": [{ "text": "HARDWICKE STREET", "language": "en" }],
                "lat": 53.355473,
                "lon": -6.264423,
                "address": "Hardwicke Street",
                "capacity": 16
            },
            {
                "station_id": "16",
                "name": [{ "text": "GEORGES QUAY", "language": "en" }],
                "lat": 53.347508,
                "lon": -6.252192,
                "address": "Georges Quay",
                "capacity": 20
            },
            {
                "station_id": "17",
                "name": [{ "text": "GOLDEN LANE", "language": "en" }],
                "lat": 53.340803,
                "lon": -6.267732,
                "address": "Golden Lane",
                "capacity": 20
            },
            {
                "station_id": "18",
                "name": [{ "text": "GRANTHAM STREET", "language": "en" }],
                "lat": 53.334123,
                "lon": -6.265436,
                "address": "Grantham Street",
                "capacity": 30
            },
            {
                "station_id": "19",
                "name": [{ "text": "HERBERT PLACE", "language": "en" }],
                "lat": 53.334432,
                "lon": -6.245575,
                "address": "Herbert Place",
                "capacity": 30
            },
            {
                "station_id": "20",
                "name": [{ "text": "JAMES STREET EAST", "language": "en" }],
                "lat": 53.336597,
                "lon": -6.248109,
                "address": "James Street East",
                "capacity": 30
            },
            {
                "station_id": "21",
                "name": [{ "text": "LEINSTER STREET SOUTH", "language": "en" }],
                "lat": 53.34218,
                "lon": -6.254485,
                "address": "Leinster Street South",
                "capacity": 30
            },
            {
                "station_id": "22",
                "name": [{ "text": "TOWNSEND STREET", "language": "en" }],
                "lat": 53.345922,
                "lon": -6.254614,
                "address": "Townsend Street",
                "capacity": 20
            },
            {
                "station_id": "23",
                "name": [{ "text": "CUSTOM HOUSE", "language": "en" }],
                "lat": 53.348279,
                "lon": -6.254662,
                "address": "Custom House",
                "capacity": 30
            },
            {
                "station_id": "24",
                "name": [{ "text": "CATHAL BRUGHA STREET", "language": "en" }],
                "lat": 53.352149,
                "lon": -6.260533,
                "address": "Cathal Brugha Street",
                "capacity": 20
            },
            {
                "station_id": "25",
                "name": [{ "text": "MERRION SQUARE EAST", "language": "en" }],
                "lat": 53.339434,
                "lon": -6.246548,
                "address": "Merrion Square East",
                "capacity": 30
            },
            {
                "station_id": "26",
                "name": [{ "text": "MERRION SQUARE WEST", "language": "en" }],
                "lat": 53.339764,
                "lon": -6.251988,
                "address": "Merrion Square West",
                "capacity": 20
            },
            {
                "station_id": "27",
                "name": [{ "text": "MOLESWORTH STREET", "language": "en" }],
                "lat": 53.341288,
                "lon": -6.258117,
                "address": "Molesworth Street",
                "capacity": 20
            },
            {
                "station_id": "28",
                "name": [{ "text": "MOUNTJOY SQUARE WEST", "language": "en" }],
                "lat": 53.356299,
                "lon": -6.258586,
                "address": "Mountjoy Square West",
                "capacity": 30
            },
            {
                "station_id": "29",
                "name": [{ "text": "ORMOND QUAY UPPER", "language": "en" }],
                "lat": 53.346057,
                "lon": -6.268001,
                "address": "Ormond Quay Upper",
                "capacity": 29
            },
            {
                "station_id": "30",
                "name": [{ "text": "PARNELL SQUARE NORTH", "language": "en" }],
                "lat": 53.353742,
                "lon": -6.265301,
                "address": "Parnell Square North",
                "capacity": 20
            },
            {
                "station_id": "31",
                "name": [{ "text": "PARNELL STREET", "language": "en" }],
                "lat": 53.350929,
                "lon": -6.265125,
                "address": "Parnell Street",
                "capacity": 20
            },
            {
                "station_id": "32",
                "name": [{ "text": "PEARSE STREET", "language": "en" }],
                "lat": 53.344304,
                "lon": -6.250427,
                "address": "Pearse Street",
                "capacity": 30
            },
            {
                "station_id": "33",
                "name": [
                    {
                        "text": "PRINCES STREET / O'CONNELL STREET",
                        "language": "en"
                    }
                ],
                "lat": 53.349013,
                "lon": -6.260311,
                "address": "Princes Street / O'Connell Street",
                "capacity": 23
            },
            {
                "station_id": "34",
                "name": [{ "text": "PORTOBELLO HARBOUR", "language": "en" }],
                "lat": 53.330362,
                "lon": -6.265163,
                "address": "Portobello Harbour",
                "capacity": 30
            },
            {
                "station_id": "35",
                "name": [{ "text": "SMITHFIELD", "language": "en" }],
                "lat": 53.347692,
                "lon": -6.278214,
                "address": "Smithfield",
                "capacity": 30
            },
            {
                "station_id": "36",
                "name": [
                    { "text": "ST. STEPHEN'S GREEN EAST", "language": "en" }
                ],
                "lat": 53.337824,
                "lon": -6.256035,
                "address": "St. Stephen's Green East",
                "capacity": 40
            },
            {
                "station_id": "37",
                "name": [
                    { "text": "ST. STEPHEN'S GREEN SOUTH", "language": "en" }
                ],
                "lat": 53.337494,
                "lon": -6.26199,
                "address": "St. Stephen's Green South",
                "capacity": 30
            },
            {
                "station_id": "38",
                "name": [{ "text": "TALBOT STREET", "language": "en" }],
                "lat": 53.350974,
                "lon": -6.25294,
                "address": "Talbot Street",
                "capacity": 40
            },
            {
                "station_id": "39",
                "name": [{ "text": "WILTON TERRACE", "language": "en" }],
                "lat": 53.332383,
                "lon": -6.252717,
                "address": "Wilton Terrace",
                "capacity": 20
            },
            {
                "station_id": "40",
                "name": [{ "text": "JERVIS STREET", "language": "en" }],
                "lat": 53.3483,
                "lon": -6.266651,
                "address": "Jervis Street",
                "capacity": 21
            },
            {
                "station_id": "41",
                "name": [{ "text": "HARCOURT TERRACE", "language": "en" }],
                "lat": 53.332763,
                "lon": -6.257942,
                "address": "Harcourt Terrace",
                "capacity": 20
            },
            {
                "station_id": "42",
                "name": [{ "text": "SMITHFIELD NORTH", "language": "en" }],
                "lat": 53.349562,
                "lon": -6.278198,
                "address": "Smithfield North",
                "capacity": 30
            },
            {
                "station_id": "43",
                "name": [{ "text": "PORTOBELLO ROAD", "language": "en" }],
                "lat": 53.330091,
                "lon": -6.268044,
                "address": "Portobello Road",
                "capacity": 30
            },
            {
                "station_id": "44",
                "name": [{ "text": "UPPER SHERRARD STREET", "language": "en" }],
                "lat": 53.358437,
                "lon": -6.260641,
                "address": "Upper Sherrard Street",
                "capacity": 30
            },
            {
                "station_id": "45",
                "name": [{ "text": "DEVERELL PLACE", "language": "en" }],
                "lat": 53.351464,
                "lon": -6.255265,
                "address": "Deverell Place",
                "capacity": 30
            },
            {
                "station_id": "47",
                "name": [{ "text": "HERBERT STREET", "language": "en" }],
                "lat": 53.335742,
                "lon": -6.24551,
                "address": "Herbert Street",
                "capacity": 40
            },
            {
                "station_id": "48",
                "name": [{ "text": "EXCISE WALK", "language": "en" }],
                "lat": 53.347777,
                "lon": -6.244239,
                "address": "Excise Walk",
                "capacity": 40
            },
            {
                "station_id": "49",
                "name": [{ "text": "GUILD STREET", "language": "en" }],
                "lat": 53.347932,
                "lon": -6.240928,
                "address": "Guild Street",
                "capacity": 40
            },
            {
                "station_id": "50",
                "name": [{ "text": "GEORGES LANE", "language": "en" }],
                "lat": 53.35023,
                "lon": -6.279696,
                "address": "George's Lane",
                "capacity": 40
            },
            {
                "station_id": "51",
                "name": [{ "text": "YORK STREET WEST", "language": "en" }],
                "lat": 53.339334,
                "lon": -6.264699,
                "address": "York Street West",
                "capacity": 40
            },
            {
                "station_id": "52",
                "name": [{ "text": "YORK STREET EAST", "language": "en" }],
                "lat": 53.338755,
                "lon": -6.262003,
                "address": "York Street East",
                "capacity": 32
            },
            {
                "station_id": "53",
                "name": [{ "text": "NEWMAN HOUSE", "language": "en" }],
                "lat": 53.337132,
                "lon": -6.26059,
                "address": "Newman House",
                "capacity": 40
            },
            {
                "station_id": "54",
                "name": [{ "text": "CLONMEL STREET", "language": "en" }],
                "lat": 53.336021,
                "lon": -6.26298,
                "address": "Clonmel Street",
                "capacity": 33
            },
            {
                "station_id": "55",
                "name": [{ "text": "HATCH STREET", "language": "en" }],
                "lat": 53.33403,
                "lon": -6.260714,
                "address": "Hatch Street",
                "capacity": 36
            },
            {
                "station_id": "56",
                "name": [{ "text": "MOUNT STREET LOWER", "language": "en" }],
                "lat": 53.33796,
                "lon": -6.24153,
                "address": "Mount Street Lower",
                "capacity": 40
            },
            {
                "station_id": "57",
                "name": [{ "text": "GRATTAN STREET", "language": "en" }],
                "lat": 53.339629,
                "lon": -6.243778,
                "address": "Grattan Street",
                "capacity": 23
            },
            {
                "station_id": "58",
                "name": [{ "text": "SIR PATRICK DUN'S", "language": "en" }],
                "lat": 53.339218,
                "lon": -6.240642,
                "address": "Sir Patrick's Dun",
                "capacity": 40
            },
            {
                "station_id": "59",
                "name": [{ "text": "DENMARK STREET GREAT", "language": "en" }],
                "lat": 53.35561,
                "lon": -6.261397,
                "address": "Denmark Street Great",
                "capacity": 20
            },
            {
                "station_id": "60",
                "name": [{ "text": "NORTH CIRCULAR ROAD", "language": "en" }],
                "lat": 53.359624,
                "lon": -6.260348,
                "address": "North Circular Road",
                "capacity": 30
            },
            {
                "station_id": "61",
                "name": [{ "text": "HARDWICKE PLACE", "language": "en" }],
                "lat": 53.357043,
                "lon": -6.263232,
                "address": "Hardwicke Place",
                "capacity": 25
            },
            {
                "station_id": "62",
                "name": [{ "text": "LIME STREET", "language": "en" }],
                "lat": 53.346026,
                "lon": -6.243576,
                "address": "Lime Street",
                "capacity": 40
            },
            {
                "station_id": "63",
                "name": [{ "text": "FENIAN STREET", "language": "en" }],
                "lat": 53.341428,
                "lon": -6.24672,
                "address": "Fenian Street",
                "capacity": 35
            },
            {
                "station_id": "64",
                "name": [{ "text": "SANDWITH STREET", "language": "en" }],
                "lat": 53.345203,
                "lon": -6.247163,
                "address": "Sandwith Street",
                "capacity": 40
            },
            {
                "station_id": "65",
                "name": [{ "text": "CONVENTION CENTRE", "language": "en" }],
                "lat": 53.34744,
                "lon": -6.238523,
                "address": "Convention Centre",
                "capacity": 40
            },
            {
                "station_id": "66",
                "name": [{ "text": "NEW CENTRAL BANK", "language": "en" }],
                "lat": 53.347122,
                "lon": -6.234749,
                "address": "New Central Bank",
                "capacity": 40
            },
            {
                "station_id": "67",
                "name": [{ "text": "THE POINT", "language": "en" }],
                "lat": 53.346867,
                "lon": -6.230852,
                "address": "The Point",
                "capacity": 40
            },
            {
                "station_id": "68",
                "name": [{ "text": "HANOVER QUAY", "language": "en" }],
                "lat": 53.344115,
                "lon": -6.237153,
                "address": "Hanover Quay",
                "capacity": 40
            },
            {
                "station_id": "69",
                "name": [{ "text": "GRAND CANAL DOCK", "language": "en" }],
                "lat": 53.342638,
                "lon": -6.238695,
                "address": "Grand Canal Dock",
                "capacity": 40
            },
            {
                "station_id": "70",
                "name": [{ "text": "BARROW STREET", "language": "en" }],
                "lat": 53.338311,
                "lon": -6.236779,
                "address": "Barrow Street",
                "capacity": 21
            },
            {
                "station_id": "71",
                "name": [{ "text": "KEVIN STREET", "language": "en" }],
                "lat": 53.337757,
                "lon": -6.267699,
                "address": "Kevin Street",
                "capacity": 40
            },
            {
                "station_id": "72",
                "name": [{ "text": "JOHN STREET WEST", "language": "en" }],
                "lat": 53.343105,
                "lon": -6.277167,
                "address": "John Street West",
                "capacity": 31
            },
            {
                "station_id": "73",
                "name": [{ "text": "FRANCIS STREET", "language": "en" }],
                "lat": 53.342081,
                "lon": -6.275233,
                "address": "Francis Street",
                "capacity": 30
            },
            {
                "station_id": "74",
                "name": [{ "text": "OLIVER BOND STREET", "language": "en" }],
                "lat": 53.343893,
                "lon": -6.280531,
                "address": "Oliver Bond Street",
                "capacity": 30
            },
            {
                "station_id": "75",
                "name": [{ "text": "JAMES STREET", "language": "en" }],
                "lat": 53.343456,
                "lon": -6.287409,
                "address": "James Street",
                "capacity": 40
            },
            {
                "station_id": "76",
                "name": [{ "text": "MARKET STREET SOUTH", "language": "en" }],
                "lat": 53.342296,
                "lon": -6.287661,
                "address": "Market Street South",
                "capacity": 38
            },
            {
                "station_id": "77",
                "name": [{ "text": "WOLFE TONE STREET", "language": "en" }],
                "lat": 53.348875,
                "lon": -6.267459,
                "address": "Wolfe Tone Street",
                "capacity": 29
            },
            {
                "station_id": "78",
                "name": [{ "text": "MATER HOSPITAL", "language": "en" }],
                "lat": 53.359967,
                "lon": -6.264828,
                "address": "Mater Hospital",
                "capacity": 40
            },
            {
                "station_id": "79",
                "name": [{ "text": "ECCLES STREET EAST", "language": "en" }],
                "lat": 53.358115,
                "lon": -6.265601,
                "address": "Eccles Street East",
                "capacity": 27
            },
            {
                "station_id": "80",
                "name": [
                    { "text": "ST JAMES HOSPITAL (LUAS)", "language": "en" }
                ],
                "lat": 53.341359,
                "lon": -6.292951,
                "address": "St James Hospital (Luas)",
                "capacity": 40
            },
            {
                "station_id": "82",
                "name": [{ "text": "MOUNT BROWN", "language": "en" }],
                "lat": 53.341645,
                "lon": -6.29719,
                "address": "Mount Brown",
                "capacity": 22
            },
            {
                "station_id": "83",
                "name": [{ "text": "EMMET ROAD", "language": "en" }],
                "lat": 53.340714,
                "lon": -6.308191,
                "address": "Emmet Road",
                "capacity": 40
            },
            {
                "station_id": "84",
                "name": [{ "text": "BROOKFIELD ROAD", "language": "en" }],
                "lat": 53.339005,
                "lon": -6.300217,
                "address": "Brookfield Road",
                "capacity": 30
            },
            {
                "station_id": "85",
                "name": [{ "text": "ROTHE ABBEY", "language": "en" }],
                "lat": 53.338776,
                "lon": -6.30395,
                "address": "Rothe Abbey",
                "capacity": 35
            },
            {
                "station_id": "86",
                "name": [{ "text": "PARKGATE STREET", "language": "en" }],
                "lat": 53.347972,
                "lon": -6.291804,
                "address": "Parkgate Street",
                "capacity": 38
            },
            {
                "station_id": "87",
                "name": [
                    { "text": "COLLINS BARRACKS MUSEUM", "language": "en" }
                ],
                "lat": 53.347477,
                "lon": -6.28525,
                "address": "Collins Barracks Museum",
                "capacity": 38
            },
            {
                "station_id": "88",
                "name": [{ "text": "BLACKHALL PLACE", "language": "en" }],
                "lat": 53.3488,
                "lon": -6.281637,
                "address": "Blackhall Place",
                "capacity": 30
            },
            {
                "station_id": "89",
                "name": [
                    { "text": "FITZWILLIAM SQUARE EAST", "language": "en" }
                ],
                "lat": 53.335211,
                "lon": -6.2509,
                "address": "Fitzwilliam Square East",
                "capacity": 40
            },
            {
                "station_id": "90",
                "name": [{ "text": "BENSON STREET", "language": "en" }],
                "lat": 53.344153,
                "lon": -6.233451,
                "address": "Benson Street",
                "capacity": 40
            },
            {
                "station_id": "91",
                "name": [{ "text": "SOUTH DOCK ROAD", "language": "en" }],
                "lat": 53.341833,
                "lon": -6.231291,
                "address": "South Dock Road",
                "capacity": 30
            },
            {
                "station_id": "92",
                "name": [
                    { "text": "HEUSTON BRIDGE (NORTH)", "language": "en" }
                ],
                "lat": 53.347802,
                "lon": -6.292432,
                "address": "Heuston Bridge (North)",
                "capacity": 40
            },
            {
                "station_id": "93",
                "name": [
                    { "text": "HEUSTON STATION (CENTRAL)", "language": "en" }
                ],
                "lat": 53.346603,
                "lon": -6.296924,
                "address": "Heuston Station (Central)",
                "capacity": 40
            },
            {
                "station_id": "94",
                "name": [
                    { "text": "HEUSTON STATION (CAR PARK)", "language": "en" }
                ],
                "lat": 53.346985,
                "lon": -6.297804,
                "address": "Heuston Station (Car Park)",
                "capacity": 40
            },
            {
                "station_id": "95",
                "name": [{ "text": "ROYAL HOSPITAL", "language": "en" }],
                "lat": 53.343897,
                "lon": -6.29706,
                "address": "Royal Hospital",
                "capacity": 40
            },
            {
                "station_id": "96",
                "name": [{ "text": "KILMAINHAM LANE", "language": "en" }],
                "lat": 53.341805,
                "lon": -6.305085,
                "address": "Kilmainham Lane",
                "capacity": 30
            },
            {
                "station_id": "97",
                "name": [{ "text": "KILMAINHAM GAOL", "language": "en" }],
                "lat": 53.342113,
                "lon": -6.310015,
                "address": "Kilmainham Gaol",
                "capacity": 40
            },
            {
                "station_id": "98",
                "name": [
                    { "text": "FREDERICK STREET SOUTH", "language": "en" }
                ],
                "lat": 53.341515,
                "lon": -6.256853,
                "address": "Frederick Street South",
                "capacity": 40
            },
            {
                "station_id": "99",
                "name": [{ "text": "CITY QUAY", "language": "en" }],
                "lat": 53.346637,
                "lon": -6.246154,
                "address": "City Quay",
                "capacity": 30
            },
            {
                "station_id": "100",
                "name": [
                    { "text": "HEUSTON BRIDGE (SOUTH)", "language": "en" }
                ],
                "lat": 53.347106,
                "lon": -6.292041,
                "address": "Heuston Bridge (South)",
                "capacity": 25
            },
            {
                "station_id": "101",
                "name": [{ "text": "KING STREET NORTH", "language": "en" }],
                "lat": 53.350291,
                "lon": -6.273507,
                "address": "King Street North",
                "capacity": 30
            },
            {
                "station_id": "102",
                "name": [{ "text": "WESTERN WAY", "language": "en" }],
                "lat": 53.354929,
                "lon": -6.269425,
                "address": "Western Way",
                "capacity": 40
            },
            {
                "station_id": "103",
                "name": [
                    { "text": "GRANGEGORMAN LOWER (SOUTH)", "language": "en" }
                ],
                "lat": 53.354663,
                "lon": -6.278681,
                "address": "Grangegorman Lower (South)",
                "capacity": 40
            },
            {
                "station_id": "104",
                "name": [
                    { "text": "GRANGEGORMAN LOWER (CENTRAL)", "language": "en" }
                ],
                "lat": 53.355173,
                "lon": -6.278424,
                "address": "Grangegorman Lower (Central)",
                "capacity": 40
            },
            {
                "station_id": "105",
                "name": [
                    { "text": "GRANGEGORMAN LOWER (NORTH)", "language": "en" }
                ],
                "lat": 53.355954,
                "lon": -6.278378,
                "address": "Grangegorman Lower (North)",
                "capacity": 36
            },
            {
                "station_id": "106",
                "name": [{ "text": "RATHDOWN ROAD", "language": "en" }],
                "lat": 53.35893,
                "lon": -6.280337,
                "address": "Rathdown Road",
                "capacity": 40
            },
            {
                "station_id": "107",
                "name": [{ "text": "CHARLEVILLE ROAD", "language": "en" }],
                "lat": 53.359157,
                "lon": -6.281866,
                "address": "Charleville Road",
                "capacity": 40
            },
            {
                "station_id": "108",
                "name": [{ "text": "AVONDALE ROAD", "language": "en" }],
                "lat": 53.359405,
                "lon": -6.276142,
                "address": "Avondale Road",
                "capacity": 35
            },
            {
                "station_id": "109",
                "name": [
                    { "text": "BUCKINGHAM STREET LOWER", "language": "en" }
                ],
                "lat": 53.353331,
                "lon": -6.249319,
                "address": "Buckingham Street Lower",
                "capacity": 29
            },
            {
                "station_id": "110",
                "name": [{ "text": "PHIBSBOROUGH ROAD", "language": "en" }],
                "lat": 53.356307,
                "lon": -6.273717,
                "address": "Phibsborough Road",
                "capacity": 40
            },
            {
                "station_id": "111",
                "name": [{ "text": "MOUNTJOY SQUARE EAST", "language": "en" }],
                "lat": 53.356717,
                "lon": -6.256359,
                "address": "Mountjoy Square East",
                "capacity": 40
            },
            {
                "station_id": "112",
                "name": [
                    {
                        "text": "NORTH CIRCULAR ROAD (O'CONNELL'S)",
                        "language": "en"
                    }
                ],
                "lat": 53.357841,
                "lon": -6.251557,
                "address": "North Circular Road (O'Connell's)",
                "capacity": 30
            },
            {
                "station_id": "113",
                "name": [{ "text": "MERRION SQUARE SOUTH", "language": "en" }],
                "lat": 53.338614,
                "lon": -6.248606,
                "address": "Merrion Square South",
                "capacity": 40
            },
            {
                "station_id": "114",
                "name": [{ "text": "WILTON TERRACE (PARK)", "language": "en" }],
                "lat": 53.333653,
                "lon": -6.248345,
                "address": "Wilton Terrace (Park)",
                "capacity": 40
            },
            {
                "station_id": "115",
                "name": [{ "text": "KILLARNEY STREET", "language": "en" }],
                "lat": 53.354845,
                "lon": -6.247579,
                "address": "Killarney Street",
                "capacity": 30
            },
            {
                "station_id": "116",
                "name": [{ "text": "BROADSTONE", "language": "en" }],
                "lat": 53.3547,
                "lon": -6.272314,
                "address": "Broadstone",
                "capacity": 30
            },
            {
                "station_id": "117",
                "name": [{ "text": "HANOVER QUAY EAST", "language": "en" }],
                "lat": 53.343653,
                "lon": -6.231755,
                "address": "Hanover Quay East",
                "capacity": 40
            }
        ]
    }
}
